CUE,Nombre,Domicilio,Sendero,Ambito,BARRIO,Comuna,DE,X,Y,y_lat,x_long
200249,Jardin de Infantes Nucleado A DE 01º (EPC 09),Tte. Gral. Juan D. Peron 1140,SE01AA,publica,SAN NICOLAS,1,1,107396,102547,-34.606284,-58.382666
200869,Esc. Primaria Comun Nº 09 DE 01º Familia de Cabezon,Tte. Gral. Juan D. Peron 1140,SE01AA,publica,SAN NICOLAS,1,1,107396,102547,-34.606284,-58.382666
200867,Instituto Raul Scalabrini Ortiz,Bartolome Mitre 970,SE01AA,privada,SAN NICOLAS,1,1,107619,102429,-34.607339,-58.380237
201524,Esc. de Comercio Nº 04 Baldomero Fernandez Moreno,Peru 1357,SE01AB,publica,SAN TELMO,1,3,108171,100592,-34.623901,-58.374198
201751,Esc. Primaria Comun Nº 27 DE 04º Dean Funes,Defensa 1431,SE01AB,publica,SAN TELMO,1,4,108431,100507,-34.624666,-58.371362
201615,Instituto Maria Auxiliadora,Av. Brasil 559 - Av. Juan de Garay 556,SE01AB,privada,SAN TELMO,1,4,108241,100515,-34.624595,-58.373434
200055,Instituto Integral del Sud,Defensa 1318,SE01AB,privada,SAN TELMO,1,4,108453,100657,-34.623313,-58.371123
200509,Esc. Tecnica Nº 12 Libertador Gral. Jose de San Martin,Av. del Libertador 238,SE01AC,publica,RETIRO,1,1,107893,104140,-34.591923,-58.377276
200584,Inst. de Ens. Superior en Lenguas Vivas Juan Ramon Fernandez (sede),Carlos Pellegrini 1455/1515,SE01AC,publica,RETIRO,1,1,107514,104251,-34.590806,-58.381358
200525,Instituto Incorporado Josefa Capdevilla de Gutierrez,Arroyo 931,SE01AC,privada,RETIRO,1,1,107589,104202,-34.591345,-58.380575
200071,Esc. Primaria Comun Nº 14 DE 03º Gral. Mariano Necochea,Pdte. Luis Saenz Peña 463,SE01AD,publica,MONSERRAT,1,3,106940,101667,-34.61422,-58.38763
202238,Jardin de Infantes Integral Nº 04 DE 03º El Jardin del Manzano,Mexico 1627/1629,SE01AD,publica,MONSERRAT,1,3,106777,101528,-34.615474,-58.389406
201146,Colegio Los Robles,Av. Belgrano 1548,SE01AD,privada,MONSERRAT,1,3,106898,101715,-34.613788,-58.388088
200650,Colegio Don Bosco,Solis 252,SE01AD,privada,MONSERRAT,1,3,106705,101917,-34.611968,-58.390194
202766,Escuela Infantil Cauce XXI,Solis 480,SE01AD,privada,MONSERRAT,1,3,106702,101632,-34.614537,-58.390225
202704,Jardin Mi Sol,Mexico 1743,SE01AD,privada,MONSERRAT,1,3,106637,101521,-34.615538,-58.390933
200583,Esc. Tecnica Nº 01 Ing. Otto Krause,Av. Paseo Colon 650,SE01AE,publica,MONSERRAT,1,4,108673,101551,-34.615253,-58.368733
201531,Instituto Privado de Educacion Tecnica y Formacion Profesional 13 de Julio (SLyF),Humberto 1º 102,SE01AE,privada,SAN TELMO,1,4,108804,100951,-34.62066,-58.367299
202469,Escuela Infantil Nº 05 DE 04º,Balcarce 277,SE01AE,publica,MONSERRAT,1,4,108485,101528,-34.615461,-58.370783
202063,Escuela Infantil Nº 02 DE 03º Mane Bernardo,Chile 1626/1636,SE01AF,publica,MONSERRAT,1,3,106768,101374,-34.616862,-58.389503
200073,Esc. Primaria Comun Nº 02 DE 03º Fray Cayetano Rodriguez,Chile 1670,SE01AF,publica,MONSERRAT,1,3,106728,101372,-34.616881,-58.389939
201237,Esc. Primaria Comun Nº 01 DE 03º Valentin Gomez,Av. Independencia 758,SE01AG,publica,SAN TELMO,1,3,107941,101295,-34.617566,-58.376712
201245,Colegio Nº 07 Juan Martin de Pueyrredon,Chacabuco 922,SE01AG,publica,SAN TELMO,1,3,108033,101159,-34.618791,-58.375708
201241,Esc. de Educacion Especial (Niños con Discapacidad Mental) Nº 14 Constancio C. Vigil,Av. Independencia 668/676,SE01AG,publica,SAN TELMO,1,3,108062,101306,-34.617466,-58.375393
201914,Esc. de Educacion Especial para Form. Integral (Jovenes y Adultos con Discapacidad Visual) Nº 37 Francisco Gatti,Av. Independencia 672,SE01AG,publica,SAN TELMO,1,3,108054,101306,-34.617466,-58.37548
202213,Jardin de Infantes Comun Nº 03 DE 03º San Telmo,Piedras 860,SE01AG,publica,SAN TELMO,1,3,107897,101236,-34.618098,-58.377192
200528,Esc. Primaria Comun Nº 21 DE 04º Hipolito Vieytes,Peru 946,SE01AG,publica,SAN TELMO,1,4,108174,101136,-34.618998,-58.37417
202814,Escuela Infantil Nº 08 DE 04º,Peru 782 - Av. Independencia 559/569,SE01AG,publica,SAN TELMO,1,4,108156,101356,-34.617015,-58.374369
203057,Jardin Maternal Nº 12 DE 04º,Av. Independencia 559/569 - Peru 782,SE01AG,publica,SAN TELMO,1,4,108175,101349,-34.617074,-58.374165
200568,Instituto Industrial Luis A. Huergo,Peru 759,SE01AG,privada,SAN TELMO,1,3,108131,101385,-34.616753,-58.374642
200469,Esc. Politecnica Manuel Belgrano,Bolivar 346,SE01AH,publica,MONSERRAT,1,4,108266,101924,-34.611868,-58.373215
201694,Esc. Tecnica Nº 15 Maipu,Av. Paseo Colon 255,SE01AH,publica,MONSERRAT,1,4,108574,102060,-34.610659,-58.369798
200456,Hogar Maternal N° 04 Celia Martinez de Varela,Av. Paseo Colon 465,SE01AH,privada,MONSERRAT,1,4,108583,101792,-34.613069,-58.369707
200457,Instituto San Francisco,Moreno 343,SE01AH,privada,MONSERRAT,1,4,108424,102006,-34.611158,-58.371466
290005,Colegio Nacional de Buenos Aires,Bolivar 263,SE01AH,publica,MONSERRAT,1,4,108227,102027,-34.610924,-58.373618
200565,Instituto Colegio de Ntra. Señora,Esmeralda 759,SE01AI,privada,SAN NICOLAS,1,1,107818,103297,-34.599501,-58.378081
200562,San Maron,Paraguay 834,SE01AI,privada,RETIRO,1,1,107751,103486,-34.597801,-58.378821
200309,Jardin de Infantes Nucleado D DE 03º Dr. Rene Favaloro (EPC 03),Tacuari 567,SE01AJ,publica,MONSERRAT,1,3,107725,101599,-34.614827,-58.37907
200311,Esc. Primaria Comun Nº 03 DE 03º Maria Sanchez de Thompson,Tacuari 567,SE01AJ,publica,MONSERRAT,1,3,107725,101599,-34.614827,-58.37907
201243,Esc. Primaria Comun Nº 04 DE 03º Cnel. Isidoro Suarez,Venezuela 771,SE01AJ,publica,MONSERRAT,1,3,107902,101706,-34.613861,-58.377141
200309,Jardin de Infantes Nucleado D DE 03º Dr. Rene Favaloro [S] (EPC 04),Venezuela 753,SE01AJ,publica,MONSERRAT,1,3,107927,101707,-34.613852,-58.376869
200752,Esc. Integral Interdisciplinaria Nº 03,Piedras 1430,SE01AK,publica,SAN TELMO,1,3,107968,100432,-34.625345,-58.37641
201809,El Solcito de Catalina,Av. Brasil 825,SE01AK,privada,CONSTITUCION,1,3,107948,100319,-34.626364,-58.376627
200769,Hogar Maternal N° 02 Felicia Ramon de Palacios,Av. Brasil 882,SE01AK,privada,CONSTITUCION,1,5,107916,100268,-34.626824,-58.376975
200768,Instituto Sta. Catalina,Piedras 1527,SE01AK,privada,CONSTITUCION,1,5,107989,100293,-34.626598,-58.37618
201232,Esc. Tecnica Nº 19 Alejandro Volta,Lavalle 1681 - Rodriguez Peña 551,SE01AL,publica,SAN NICOLAS,1,1,106646,102916,-34.602963,-58.390845
201174,Instituto Argentino de Enseñanza Secundaria,Montevideo 467,SE01AL,privada,SAN NICOLAS,1,1,106791,102855,-34.603512,-58.389264
200748,Colegio Esteban Echeverria,Av. San Juan 961/983,SE01AM,privada,CONSTITUCION,1,3,107693,100812,-34.621922,-58.379412
200749,Instituto Jesus Maria de San Vicente de Paul,Carlos Calvo 922,SE01AM,privada,CONSTITUCION,1,3,107730,101040,-34.619866,-58.379011
200607,Esc. Primaria Comun Nº 22 DE 04º Dr. Guillermo Rawson,Humberto 1º 343,SE01AN,publica,SAN TELMO,1,4,108502,100962,-34.620563,-58.370592
200504,Esc. Primaria Comun Nº 26 DE 04º Hipolito Yrigoyen,Av. San Juan 353,SE01AN,publica,SAN TELMO,1,4,108516,100844,-34.621627,-58.370438
201782,Jardin de Infantes Integral Nº 09 DE 04º Juan Carlos Castagnino,Av. San Juan 353,SE01AN,publica,SAN TELMO,1,4,108516,100844,-34.621627,-58.370438
200536,Esc. Normal Superior Nº 03 Bernardino Rivadavia (sede),Bolivar 1235 - Peru 1236,SE01AN,publica,SAN TELMO,1,4,108290,100765,-34.622341,-58.372902
200536,Polideportivo Martina Cespedes,Bolivar 1280 - Defensa 1249,SE01AN,publica,SAN TELMO,1,4,108318,100723,-34.622719,-58.372596
200543,Instituto Privado Simon Bolivar,Bolivar 1163,SE01AN,privada,SAN TELMO,1,4,108285,100864,-34.621449,-58.372957
201136,Colegio Nº 02 Domingo Faustino Sarmiento,Libertad 1257,SE01AO,publica,RETIRO,1,1,107245,103963,-34.593521,-58.384324
202422,Ciclo Basico de Formacion Ocupacional Nº 04 Paulo Freire,Juncal 1258,SE01AO,publica,RETIRO,1,1,107151,104028,-34.592935,-58.385349
200035,Jardin de Infantes El Centavo,Juncal 1264,SE01AO,privada,RETIRO,1,1,107141,104027,-34.592945,-58.385458
200561,Instituto Jesus Maria,Talcahuano 1260 - Uruguay 1241,SE01AO,privada,RETIRO,1,1,107080,103928,-34.593837,-58.386122
200120,Esc. Primaria Comun Nº 13 DE 01º Gral. San Martin,San Martin 458,SE01AP,publica,SAN NICOLAS,1,1,108193,102948,-34.602636,-58.374047
203027,Esc. Superior de Educacion Artistica en Danzas Aida Victoria Mastrazzi,Esmeralda 285 - Sarmiento 790,SE01AP,publica,SAN NICOLAS,1,1,107832,102693,-34.604937,-58.377829
200249,Jardin de Infantes Nucleado A DE 01º [S] (EPC 07),Libertad 581,SE01AQ,publica,SAN NICOLAS,1,1,107298,103058,-34.601678,-58.383739
201152,Esc. Primaria Comun Nº 07 DE 01º Presidente Roca,Libertad 581,SE01AQ,publica,SAN NICOLAS,1,1,107298,103058,-34.601678,-58.383739
200249,Jardin de Infantes Nucleado A DE 01º (EPC 08),Talcahuano 680 - Viamonte 1314,SE01AQ,publica,SAN NICOLAS,1,1,107139,103161,-34.600751,-58.385473
200250,Esc. Primaria Comun Nº 08 DE 01º Nicolas Avellaneda,Talcahuano 680 - Viamonte 1314,SE01AQ,publica,SAN NICOLAS,1,1,107139,103161,-34.600751,-58.385473
200033,Instituto Constanza Ramos Mejia de Bunge,Paraguay 1252,SE01AQ,privada,RETIRO,1,1,107207,103435,-34.598281,-58.384734
290007,Instituto Libre de Segunda Enseñanza ILSE,Libertad 555,SE01AQ,privada,SAN NICOLAS,1,1,107301,103019,-34.60203,-58.383706
202007,Centro de Formacion Profesional Nº 10 Raul Scalabrini Ortiz (anexo) - SEC,Av. Rivadavia 1445/1447/1453,SE01AR,publica,SAN NICOLAS,1,1,107007,102276,-34.608712,-58.3869
201176,Instituto Sta. Rosa,Bartolome Mitre 1655,SE01AR,privada,SAN NICOLAS,1,1,106719,102381,-34.607785,-58.390045
200146,Escuela Parroquial La Piedad,Parana 56,SE01AR,privada,SAN NICOLAS,1,1,106920,102341,-34.608144,-58.387854
200617,Jardin de Infantes Nucleado B DE 05º (EPC 04),Solis 1815,SE01AS,publica,CONSTITUCION,1,5,106776,99992,-34.62932,-58.389405
201584,Esc. Primaria Comun Nº 04 DE 05º Cnel. de Marina Tomas Espora,Solis 1815,SE01AS,publica,CONSTITUCION,1,5,106776,99992,-34.62932,-58.389405
200617,Jardin de Infantes Nucleado B DE 05º [S] (EPC 06),San Jose 1985,SE01AS,publica,CONSTITUCION,1,5,107125,99685,-34.632085,-58.385597
201698,Esc. Primaria Comun Nº 06 DE 05º Tomas Guido,San Jose 1985,SE01AS,publica,CONSTITUCION,1,5,107125,99685,-34.632085,-58.385597
201697,Jardin de Infantes Integral Nº 01 DE 05º Walt Disney,Av. Caseros 1555,SE01AS,publica,CONSTITUCION,1,5,107195,99642,-34.632472,-58.384833
201701,Instituto Presbitero Manuel Alberti,Av. Entre Rios 1974/1976,SE01AS,privada,CONSTITUCION,1,5,106679,99787,-34.631169,-58.390461
200771,Instituto Los Angeles,Av. Entre Rios 1956,SE01AS,privada,CONSTITUCION,1,5,106673,99813,-34.630934,-58.390527
200629,Esc. Primaria Comun Nº 05 DE 03º Agustin Alvarez,Humberto 1º 1573,SE01AT,publica,CONSTITUCION,1,3,106883,100892,-34.621206,-58.388245
200630,Jardin de Infantes Integral Nº 01 DE 03º Juanito Laguna,Humberto 1º 1573,SE01AT,publica,CONSTITUCION,1,3,106883,100892,-34.621206,-58.388245
200631,Esc. Primaria Comun Nº 11 DE 03º Dr. Ricardo Gutierrez,Pdte. Luis Saenz Peña 1215,SE01AT,publica,CONSTITUCION,1,3,106969,100735,-34.622621,-58.387306
200628,Colegio Nº 01 Bernardino Rivadavia,Av. San Juan 1545,SE01AT,publica,CONSTITUCION,1,3,106922,100765,-34.622351,-58.387819
200632,Instituto Rosa Anchorena de Ibañez,Av. San Juan 1774,SE01AT,privada,CONSTITUCION,1,3,106635,100701,-34.62293,-58.390948
200063,Esc. Primaria Comun Nº 07 DE 03º Gral. Güemes,Carlos Calvo 1140,SE01AU,publica,CONSTITUCION,1,3,107439,101039,-34.619878,-58.382184
201240,Esc. Primaria Comun Nº 16 DE 03º Eustaquio Cardenas,Salta 1226,SE01AU,publica,CONSTITUCION,1,3,107380,100728,-34.622681,-58.382825
201239,Instituto Inmaculada Concepcion,Carlos Calvo 1186,SE01AU,privada,CONSTITUCION,1,3,107394,101038,-34.619887,-58.382675
200633,Instituto La Providencia,Cochabamba 1414,SE01AV,privada,CONSTITUCION,1,3,107088,100571,-34.624099,-58.386007
200065,Hogar del Pino,Constitucion 1650,SE01AV,privada,CONSTITUCION,1,3,106810,100455,-34.625146,-58.389038
201496,Instituto Jose Manuel Estrada,Constitucion 1776,SE01AV,privada,CONSTITUCION,1,3,106646,100436,-34.625319,-58.390826
203093,Esc. Primaria Comun Nº 11 DE 01º,Carlos H. Perette y Calle 10,SE01AW,publica,RETIRO,1,1,107599,105254,-34.581708,-58.380232
203131,Escuela Infantil Nº 11 DE 01º,Carlos H. Perette y Calle 10,SE01AW,publica,RETIRO,1,1,107662,105217,-34.582062,-58.379674
203086,Jardin de Infantes Integral Nº 10 DE 01º,"Parcela 1P, Mza. 162, Sec. 15, Circ. 19",SE01AW,publica,RETIRO,1,1,106701,105536,-34.579229,-58.390051
203011,Instituto Superior de Formacion Docente Dora Acosta,"Villa 31 Bis, Mza. 13, Casa 25",SE01AW,privada,RETIRO,1,1,106863,105432,-34.580348,-58.388171
200118,Instituto Comunidad Filii Dei,Carlos Perette e/PNA y R. Walsh - Av. Gendarmeria Nacional 530,SE01AW,privada,RETIRO,1,1,108012,105083,-34.583334,-58.37608
200794,Esc. Primaria Comun Nº 13 DE 03º Provincia de Santiago del Estero,Chile 1371/1379,SE01AX,publica,MONSERRAT,1,3,107129,101409,-34.616544,-58.385567
200072,Instituto Ntra. Sra. de MONSERRAT (sede),Av. Belgrano 1344,SE01AX,privada,MONSERRAT,1,3,107153,101739,-34.613569,-58.385308
200072,Instituto Ntra. Sra. de MONSERRAT (anexo),Venezuela 1232,SE01AX,privada,MONSERRAT,1,3,107308,101631,-34.614542,-58.383617
203087,Jardin de Infantes Integral Nº 13 DE 04º,Rosario Vera Peñaloza y Julieta Lanteri,SE01AY,publica,PUERTO MADERO,1,4,109566,101229,-34.617977,-58.359051
200251,Esc. Primaria Comun Nº 05 DE 01º Nicolas Rodriguez Peña,Rodriguez Peña 747,SE01AZ,publica,SAN NICOLAS,1,1,106605,103200,-34.600403,-58.391295
203130,Jardin de Infantes Integral Nº 13 DE 01º,Rodriguez Peña 747,SE01AZ,publica,SAN NICOLAS,1,1,106605,103200,-34.600403,-58.391295
202662,Escuela Infantil Osecac,Tucuman 1756,SE01AZ,privada,SAN NICOLAS,1,1,106544,103014,-34.602089,-58.391958
201122,Esc. Primaria Comun Nº 04 DE 01º De Catedral al Norte Jose Manuel Estrada,Reconquista 461,SE01BA,publica,SAN NICOLAS,1,1,108338,102974,-34.602432,-58.372123
200789,Instituto Parroquial de la Merced,Viamonte 318,SE01BA,privada,SAN NICOLAS,1,1,108404,103272,-34.599709,-58.371708
201132,Jardin de Infantes Comun Nº 04 DE 01º Cinco Esquinas,Av. Pdte. Manuel Quintana 07/31/35,SE01BB,publica,RETIRO,1,1,107224,104078,-34.592484,-58.384554
201133,Esc. Primaria Comun Nº 02 DE 01º Domingo Faustino Sarmiento,Av. Pdte. Manuel Quintana 31/07/35,SE01BB,publica,RETIRO,1,1,107197,104102,-34.592268,-58.384848
201134,Instituto Privado Mallinckrodt,Juncal 1160,SE01BB,privada,RETIRO,1,1,107296,104025,-34.592961,-58.383769
200121,Esc. Primaria Comun Nº 06 DE 01º French y Beruti,Basavilbaso 1295 - Juncal 690,SE01BC,publica,RETIRO,1,1,107915,104016,-34.593045,-58.37704
200790,Jardin de Infantes Integral Nº 02 DE 01º America Latina,Juncal 690 - Basavilbaso 1295,SE01BC,publica,RETIRO,1,1,107920,104019,-34.59301,-58.377002
202589,Jardin Maternal Cancilleria Dejando Huellas,Basavilbaso 1212,SE01BC,privada,RETIRO,1,1,107857,103918,-34.593915,-58.377668
200791,Esc. Primaria Comun Nº 25 DE 01º Bandera Argentina,Letonia 26,SE01BD,publica,RETIRO,1,1,108489,104542,-34.588368,-58.370619
201155,Escuela Infantil Nº 05 DE 01º,Letonia 6,SE01BD,publica,RETIRO,1,1,108485,104529,-34.588501,-58.370769
203108,Escuela Infantil Nº 12 DE 01º,Letonia 6,SE01BD,publica,RETIRO,1,1,108485,104529,-34.588501,-58.370769
201457,Esc. de Educacion Media Nº 06 DE 01º Padre Carlos Mugica,Letonia 96,SE01BD,publica,RETIRO,1,1,108506,104571,-34.588103,-58.37034
200713,Jardin de Infantes Nucleado C DE 01º (EPC 21),Ayacucho 1849,SE02AA,publica,RECOLETA,2,1,106691,104483,-34.588837,-58.390367
201158,Esc. Primaria Comun Nº 21 DE 01º Angel Gallardo,Ayacucho 1849,SE02AA,publica,RECOLETA,2,1,106691,104483,-34.588837,-58.390367
200031,Colegio Las Cumbres,Guido 1880,SE02AA,privada,RECOLETA,2,1,106654,104403,-34.589558,-58.39077
200096,Esc. Integral Interdisciplinaria Nº 01,Ayacucho 953,SE02AB,publica,RECOLETA,2,1,106188,103467,-34.597999,-58.395843
200248,La Anunciata,Arenales 2065,SE02AB,privada,RECOLETA,2,1,106116,103866,-34.594402,-58.39663
200355,Escuela Arco Iris,Pdte. Jose E. Uriburu 1222,SE02AB,privada,RECOLETA,2,1,105982,103906,-34.594043,-58.398091
200648,Esc. Primaria Comun Nº 24 DE 01º Cornelia y F. Pizarro y M. Pizarro y Monje,Peña 2670,SE02AC,publica,RECOLETA,2,1,105659,104555,-34.588194,-58.401616
202907,Escuela Infantil Nº 08 DE 01º,Av. Gral. Las Heras 2670,SE02AC,publica,RECOLETA,2,1,105766,104931,-34.584818,-58.400488
200747,Colegio San Agustin,Agüero 2320,SE02AC,privada,RECOLETA,2,1,105802,104768,-34.586273,-58.400059
200642,Escuela Primaria Septiembre,Laprida 1871,SE02AC,privada,RECOLETA,2,1,105707,104479,-34.588879,-58.401093
200572,Instituto Padre Luis M. Etcheverry Boneo,Juncal 2131,SE02AD,privada,RECOLETA,2,1,106010,104059,-34.592663,-58.397787
200354,Instituto San Miguel,Larrea 1254,SE02AD,privada,RECOLETA,2,1,105772,104074,-34.592529,-58.400382
202373,Jardin de los Robles,Larrea 1208,SE02AD,privada,RECOLETA,2,1,105738,103961,-34.593548,-58.400751
203169,Jardin de Infantes Bloomies (anexo),Ayacucho 1328,SE02AD,privada,RECOLETA,2,1,106208,104009,-34.593113,-58.395628
201165,Jardin de Infantes Comun Nº 01 DE 02º,Arenales 2733,SE02AE,publica,RECOLETA,2,2,105403,104111,-34.592198,-58.404404
201166,Esc. Primaria Comun Nº 10 DE 02º Gregoria Perez,Arenales 2733,SE02AE,publica,RECOLETA,2,2,105403,104111,-34.592198,-58.404404
200034,Colegio San Tarsicio,Juncal 2623/19,SE02AE,privada,RECOLETA,2,1,105496,104352,-34.590025,-58.403392
200957,Colegio San Tarsicio,Juncal 2623/19,SE02AE,privada,RECOLETA,2,1,105496,104352,-34.590025,-58.403392
200190,Colegio San Francisco Javier (anexo: Jardin Casa Verde),Juncal 2659,SE02AE,privada,RECOLETA,2,1,105461,104372,-34.589845,-58.403774
200295,Instituto Mercedes Pacheco,Dr. T. M. de Anchorena 1553,SE02AE,privada,RECOLETA,2,2,105476,104114,-34.59217,-58.403608
200922,Instituto Rio de la Plata,Laprida 1659,SE02AE,privada,RECOLETA,2,2,105480,104265,-34.590809,-58.403566
200696,Esc. Normal Superior Nº 01 en Lenguas Vivas Presidente R. Saenz Peña,Av. Cordoba 1951 - Ayacucho 875 - Paraguay 1950,SE02AF,publica,RECOLETA,2,1,106254,103298,-34.599522,-58.395122
201234,Liceo Nº 04 Remedios de Escalada de San Martin,Ayacucho 875 - Av. Cordoba 1951 - Paraguay 1950,SE02AF,publica,RECOLETA,2,1,106205,103346,-34.599089,-58.395656
201054,Instituto del Carmen,Paraguay 1766,SE02AF,privada,RECOLETA,2,1,106493,103376,-34.598817,-58.392517
200602,Instituto Inmaculada Concepcion de Maria,Av. Cordoba 1739,SE02AF,privada,RECOLETA,2,1,106526,103308,-34.59943,-58.392157
200721,Escuela Argentina Modelo (anexo),Riobamba 925,SE02AF,privada,RECOLETA,2,1,106318,103443,-34.598214,-58.394425
290008,Escuela Superior de Comercio Carlos Pellegrini,Marcelo T. de Alvear 1851,SE02AF,publica,RECOLETA,2,1,106357,103565,-34.597114,-58.394001
202389,Jardin Maternal Nº 03 DE 02º,Gallo 1330,SE02AG,publica,RECOLETA,2,2,104807,103835,-34.594689,-58.410899
201508,Instituto de la Niñez,Gallo 1341,SE02AG,privada,RECOLETA,2,2,104840,103837,-34.594671,-58.41054
201507,Instituto Vocacional Argentino,Charcas 3034,SE02AH,privada,RECOLETA,2,2,104997,104006,-34.593146,-58.408829
202329,Tierra Fertil,Arenales 2918,SE02AH,privada,RECOLETA,2,2,105217,104259,-34.590865,-58.406432
202876,Escuela Infantil El Jardin de Palermo,Charcas 3082,SE02AH,privada,RECOLETA,2,2,104932,104024,-34.59297,-58.409543
202715,Iupi Kindergarden,Austria 1829,SE02AH,privada,RECOLETA,2,2,105192,104343,-34.59014,-58.406684
201712,Esc. Primaria Comun Nº 02 DE 02º Juan Larrea,Laprida 1235,SE02AI,publica,RECOLETA,2,2,105118,103851,-34.594543,-58.407509
200744,Liceo Nº 01 Jose Figueroa Alcorta,Av. Santa Fe 2778,SE02AI,publica,RECOLETA,2,2,105256,104034,-34.592893,-58.406006
201868,Colegio Nuevos Rumbos,Charcas 2845,SE02AI,privada,RECOLETA,2,2,105208,103929,-34.593839,-58.406529
201632,Zoe Un Lugar Para Ser,Laprida 1138,SE02AI,privada,RECOLETA,2,2,105040,103733,-34.595607,-58.408359
201161,Esc. Primaria Comun Nº 03 DE 01º Dr. Onesimo Leguizamon,Av. Santa Fe 1510,SE02AJ,publica,RECOLETA,2,1,106853,103693,-34.595957,-58.388595
200700,Instituto Champagnat,Montevideo 1050,SE02AJ,privada,RECOLETA,2,1,106724,103630,-34.596526,-58.390001
200721,Escuela Argentina Modelo (sede),Riobamba 1059,SE02AJ,privada,RECOLETA,2,1,106309,103638,-34.596457,-58.394525
200920,Colegio Nº 06 Manuel Belgrano,Ecuador 1158,SE02AK,publica,RECOLETA,2,2,105352,103630,-34.596534,-58.404957
200868,Instituto Edmundo de Amicis,Dr. N. Quirno Costa 1260,SE02AK,privada,RECOLETA,2,2,105302,103775,-34.595227,-58.405503
202042,Escuela Infantil El Oso Clarinete,Ecuador 1370,SE02AK,privada,RECOLETA,2,2,105439,103851,-34.594541,-58.40401
200645,Esc. Primaria Comun Nº 23 DE 01º Bernardino Rivadavia,Larrea 854,SE02AL,publica,RECOLETA,2,1,105584,103427,-34.598363,-58.402427
202799,Escuela Infantil Pulgarcito,Azcuenaga 826,SE02AL,privada,RECOLETA,2,1,105706,103340,-34.599146,-58.401096
200921,Instituto de los Angeles Custodios,Lucio N. Mansilla 2588 - Ecuador 1151 - Paraguay 2567,SE02AL,privada,RECOLETA,2,2,105416,103651,-34.596344,-58.404259
200713,Jardin de Infantes Nucleado C DE 01º (EPC 01),Ayacucho 1670 - Vicente Lopez 1902,SE02AM,publica,RECOLETA,2,1,106519,104333,-34.59019,-58.392241
201160,Esc. Primaria Comun Nº 01 DE 01º Juan Jose Castelli,Ayacucho 1670 - Vicente Lopez 1902,SE02AM,publica,RECOLETA,2,1,106519,104333,-34.59019,-58.392241
200293,Instituto Ntra. Sra. del Pilar,Vicente Lopez 1969,SE02AM,privada,RECOLETA,2,1,106485,104429,-34.589325,-58.392612
202507,Jardin de Infantes Integral Nº 04 DE 02º Jose Antonio Cabrera,Jose Antonio Cabrera 3430,SE02AN,publica,RECOLETA,2,2,104452,103593,-34.596872,-58.414768
201719,Esc. Primaria Comun Nº 13 DE 02º Republica Islamica de Iran,Jose Antonio Cabrera 3484,SE02AN,publica,RECOLETA,2,2,104406,103596,-34.596845,-58.415269
202944,Instituto Educativo Nuevo Guido Spano,Billinghurst 1355,SE02AN,privada,RECOLETA,2,2,104607,103871,-34.594365,-58.41308
200670,Hogar Casa de Misericordia,Azcuenaga 1654,SE02AO,privada,RECOLETA,2,1,106055,104333,-34.590193,-58.397299
200673,Instituto Ntra. Sra. de la Misericordia,Azcuenaga 1630,SE02AO,privada,RECOLETA,2,1,106055,104333,-34.590193,-58.397299
200675,Instituto San Pablo,J. A. Pacheco de Melo 2300 - Larrea 1585,SE02AO,privada,RECOLETA,2,1,106024,104484,-34.588832,-58.397637
200082,Instituto Maria Bianchi de Copello,J. A. Pacheco de Melo 2455,SE02AO,privada,RECOLETA,2,1,105878,104583,-34.58794,-58.39923
202934,Cuento de Hadas,Juncal 1640,SE02AP,privada,RECOLETA,2,1,106630,103881,-34.594264,-58.391027
202509,Gloria de la Mañana,Uruguay 1286,SE02AP,privada,RECOLETA,2,1,106935,103973,-34.593433,-58.387703
202617,Jardin del Pasaje,Vicente Lopez 1671,SE02AP,privada,RECOLETA,2,1,106771,104142,-34.59186,-58.389529
200481,Esc. Primaria Comun Nº 18 DE 01º Dr. Rafael Herrera Vegas,Av. Gral. Las Heras 3086,SE02AQ,publica,RECOLETA,2,1,105320,105051,-34.583725,-58.405315
200713,Jardin de Infantes Nucleado C DE 01º [S] (EPC 18),Av. Gral. Las Heras 3086,SE02AQ,publica,RECOLETA,2,1,105320,105051,-34.583725,-58.405315
203141,Escuela Infantil El Principito,Avda. Gral. Las Heras 2966,SE02AQ,privada,RECOLETA,2,1,105487,105055,-34.5837,-58.403503
202653,Jardin Pau Pau Billinghurst,Billinghurst 2478,SE02AQ,privada,RECOLETA,2,1,105385,105032,-34.583878,-58.404624
202942,Escuela Infantil Nº 07 DE 01º,Paraguay 1452,SE02AR,publica,RECOLETA,2,1,106942,103412,-34.598472,-58.387629
200699,Instituto Privado del Inmaculado Corazon de Maria Adoratrices,Paraguay 1419,SE02AR,privada,RECOLETA,2,1,106975,103446,-34.598183,-58.387263
202403,Jardin Maternal Nº 06 DE 01º Jardin del Palacio,Paraguay 1657,SE02AR,publica,RECOLETA,2,1,106669,103421,-34.59841,-58.390599
201254,Esc. Primaria Comun Nº 06 DE 02º Gral. Martin Rodriguez,Dr. Tomas Manuel de Anchorena 441 - Valentin Gomez 3187,SE03AA,publica,BALVANERA,3,2,104846,102725,-34.604695,-58.410468
201162,Colegio Nº 05 Bartolome Mitre,Valentin Gomez 3163,SE03AA,publica,BALVANERA,3,2,104876,102687,-34.605037,-58.410141
200652,Esc. de Comercio Nº 05 Jose de San Martin,Av. Entre Rios 757,SE03AB,publica,BALVANERA,3,3,106542,101303,-34.617504,-58.391967
202400,Esc. de Educacion Media Nº 01 DE 03º,Av. Entre Rios 757,SE03AB,publica,BALVANERA,3,3,106542,101303,-34.617504,-58.391967
200287,Instituto Euskal Echea,Sarandi 735,SE03AB,privada,BALVANERA,3,3,106293,101300,-34.617532,-58.394682
200578,Esc. Primaria Comun Nº 14 DE 01º Cornelio Saavedra,Sarmiento 2250,SE03AC,publica,BALVANERA,3,1,105931,102563,-34.606149,-58.398638
200580,Jardin de Infantes Nucleado B DE 01º [S] (EPC 14),Sarmiento 2250,SE03AC,publica,BALVANERA,3,1,105931,102563,-34.606149,-58.398638
200741,Instituto San Luis Gonzaga,Ayacucho 243,SE03AC,privada,BALVANERA,3,1,106278,102503,-34.606688,-58.394854
201747,Instituto Oral Modelo,Tte. Gral. Juan D. Peron 2239,SE03AC,privada,BALVANERA,3,1,105950,102453,-34.607141,-58.39843
200579,Instituto Privado Escuela Cangallo,Tte. Gral. Juan D. Peron 2169,SE03AC,privada,BALVANERA,3,1,106040,102457,-34.607104,-58.397449
200058,Colegio Secundario Sto. Tomas de Aquino (sede),Tte. Gral. Juan D. Peron 1862,SE03AC,privada,BALVANERA,3,1,106446,102469,-34.606989,-58.393084
200056,Esc. Primaria Comun Nº 10 DE 06º Francisco de Gurruchaga,Av. Jujuy 1471,SE03AD,publica,SAN CRISTOBAL,3,6,105655,100252,-34.626993,-58.401663
200506,Esc. Tecnica Nº 11 Manuel Belgrano (sede),Cochabamba 2830/2860,SE03AD,publica,SAN CRISTOBAL,3,6,105385,100385,-34.625806,-58.404581
200506,Esc. Tecnica Nº 11 Manuel Belgrano (anexo: Polideportivo),Dean Funes 1360 (bajo AU 1),SE03AD,publica,SAN CRISTOBAL,3,6,105312,100309,-34.626409,-58.405382
201518,Instituto San Cristobal,Av. Jujuy 1241,SE03AD,privada,SAN CRISTOBAL,3,6,105602,100530,-34.624472,-58.402231
201883,Escuela Nueva Esperanza,Av. Juan de Garay 2715,SE03AD,privada,SAN CRISTOBAL,3,6,105551,100061,-34.628675,-58.402762
201545,Jardin de Infantes Nucleado B DE 06º Maestro Escultor Francisco Reyes [S] (EPC 11),Humberto 1º 3171,SE03AE,publica,SAN CRISTOBAL,3,6,104880,100633,-34.623553,-58.410085
201602,Esc. Primaria Comun Nº 11 DE 06º Jose Federico Moreno,Humberto 1º 3171,SE03AE,publica,SAN CRISTOBAL,3,6,104880,100633,-34.623553,-58.410085
201778,Esc. Normal Superior Nº 08 Presidente Julio Argentino Roca (anexo),Carlos Calvo 3150,SE03AE,publica,SAN CRISTOBAL,3,6,104909,100728,-34.622696,-58.40977
200505,"Esc. de Educacion Especial y Form. Integral (Niños, Jovenes y Adultos con Discapacidad Mental) Nº 09 Dr. Luis R. Mac Kay",Carlos Calvo 3176,SE03AE,publica,SAN CRISTOBAL,3,6,104865,100720,-34.622768,-58.410249
200491,Esc. Primaria Comun Nº 15 DE 06º Maestro Jorge Luis Chinetti,Uriburu 876 - Estados Unidos 3141,SE03AE,publica,SAN CRISTOBAL,3,6,104894,100907,-34.621083,-58.409934
200956,Instituto Mater Ter Admirabilis,24 de Noviembre 827,SE03AE,privada,SAN CRISTOBAL,3,6,104801,100950,-34.620695,-58.410949
200955,Instituto Sta. Cruz,24 de Noviembre 900,SE03AE,privada,SAN CRISTOBAL,3,6,104836,100840,-34.621687,-58.410566
200958,Instituto Secundario El Taller,24 de Noviembre 997,SE03AE,privada,SAN CRISTOBAL,3,6,104820,100742,-34.62257,-58.41074
200290,Jardin de Infantes Nucleado B DE 03º [S] (EPC 23),Pasco 961,SE03AF,publica,SAN CRISTOBAL,3,3,106040,100995,-34.620283,-58.397438
201148,Esc. Primaria Comun Nº 23 DE 03º Gral. Viamonte,Pasco 961,SE03AF,publica,SAN CRISTOBAL,3,3,106040,100995,-34.620283,-58.397438
200410,Esc. Primaria Comun Nº 25 DE 03º Gervasio Posadas,Av. San Juan 2277,SE03AF,publica,SAN CRISTOBAL,3,3,106053,100695,-34.622987,-58.397295
201938,Esc. de Educacion Especial para Form. Integral (Jovenes y Adultos con Discapacidad Mental) Nº 22 Pedro B. Palacios Almafuerte (sede),Av. San Juan 2128,SE03AF,publica,SAN CRISTOBAL,3,3,106233,100680,-34.623122,-58.395332
201938,Esc. de Educacion Especial para Form. Integral (Jovenes y Adultos con Discapacidad Mental) Nº 22 Pedro B. Palacios Almafuerte (anexo: Centro Recreativo),Cochabamba 2147,SE03AF,publica,SAN CRISTOBAL,3,3,106215,100574,-34.624077,-58.395527
203180,Jardin de Infantes Integral Nº 05 DE 03º,Pichincha 1152,SE03AF,publica,SAN CRISTOBAL,3,3,106000,100746,-34.622521,-58.397849
201149,Instituto Ntra. Sra. del Huerto,Av. Independencia 2140,SE03AF,privada,SAN CRISTOBAL,3,3,106124,101179,-34.618624,-58.396524
201810,Trampolin,Carlos Calvo 2217,SE03AF,privada,SAN CRISTOBAL,3,3,106038,100959,-34.620608,-58.39746
200864,Esc. Primaria Comun Nº 12 DE 06º Republica del Paraguay,Agrelo 3231,SE03AG,publica,BALVANERA,3,6,104746,101271,-34.617802,-58.41155
200555,Instituto Hogar de Niños Ramon L. Falcon,La Rioja 658,SE03AG,privada,BALVANERA,3,6,105077,101304,-34.617503,-58.407941
201467,Instituto 9 de Julio,La Rioja 660,SE03AG,privada,BALVANERA,3,6,105077,101301,-34.61753,-58.407941
203066,Jardin de Infantes Integral Nº 11 DE 06º,Venezuela 3269/71,SE03AG,publica,BALVANERA,3,6,104688,101411,-34.61654,-58.412183
200643,Instituto Integral Talpiot,Azcuenaga 736,SE03AH,privada,BALVANERA,3,1,105703,103188,-34.600517,-58.401128
201260,Instituto Beth Rajel,Ecuador 530,SE03AH,privada,BALVANERA,3,2,105090,102828,-34.603765,-58.407808
202283,Casa de la Educacion,Boulonge Sur Mer 626,SE03AH,privada,BALVANERA,3,2,105224,102934,-34.602809,-58.406348
200659,Esc. Primaria Comun Nº 13 DE 06º Brig. Gral. Jose Matias Zapiola,Gral. Urquiza 227,SE03AI,publica,BALVANERA,3,6,104875,101796,-34.613069,-58.410146
201545,Jardin de Infantes Nucleado B DE 06º Maestro Escultor Francisco Reyes (EPC 13),Gral. Urquiza 227,SE03AI,publica,BALVANERA,3,6,104875,101796,-34.613069,-58.410146
200866,Esc. Normal Superior Nº 02 en Lenguas Vivas Mariano Acosta,Gral. Urquiza 277 - Moreno 3117/3199,SE03AI,publica,BALVANERA,3,6,104884,101726,-34.6137,-58.410048
200407,Instituto Privado Arcangel San Miguel,Dr. T. M. de Anchorena 41,SE03AI,privada,BALVANERA,3,2,104744,102146,-34.609914,-58.411577
200818,Esc. Primaria Comun Nº 05 DE 06º Paul Groussac,Catamarca 462,SE03AJ,publica,BALVANERA,3,6,105269,101541,-34.615366,-58.405849
200816,Escuela Infantil Nº 06 DE 06º,Catamarca 330,SE03AJ,publica,BALVANERA,3,6,105231,101692,-34.614005,-58.406264
200839,Liceo Nº 10 Ricardo Rojas,Av. Jujuy 150,SE03AJ,publica,BALVANERA,3,6,105299,101933,-34.611832,-58.405524
200865,Esc. Tecnica Nº 26 Confederacion Suiza,Av. Jujuy 255,SE03AJ,publica,BALVANERA,3,6,105289,101800,-34.613031,-58.405632
200289,Esc. Primaria Comun Nº 15 DE 03º Francisco Narciso de Laprida,Mexico 2383,SE03AK,publica,BALVANERA,3,3,105804,101446,-34.616219,-58.400015
200290,Jardin de Infantes Nucleado B DE 03º (EPC 15),Mexico 2383,SE03AK,publica,BALVANERA,3,3,105804,101446,-34.616219,-58.400015
200438,Esc. Primaria Comun Nº 06 DE 06º Dr. Guillermo Correa,Saavedra 695,SE03AK,publica,BALVANERA,3,6,105562,101292,-34.617609,-58.402653
200492,Jardin de Infantes Comun Nº 03 DE 06º Fryda Schultz de Mantovani,Saavedra 695,SE03AK,publica,BALVANERA,3,6,105562,101292,-34.617609,-58.402653
200840,Esc. Tecnica Nº 25 Tte. 1º de Artilleria Fray Luis Beltran,Av. Jujuy 780,SE03AK,publica,BALVANERA,3,6,105491,101198,-34.618456,-58.403426
201554,Jardin de Infantes Nucleado A DE 06º [S] (EPC 03),La Rioja 850,SE03AL,publica,SAN CRISTOBAL,3,6,105113,100997,-34.62027,-58.407547
201565,Esc. Primaria Comun Nº 03 DE 06º Rufino Sanchez,La Rioja 850,SE03AL,publica,SAN CRISTOBAL,3,6,105113,100997,-34.62027,-58.407547
201575,Esc. Primaria Comun Nº 17 DE 06º Luis Jose Chorroarin,Carlos Calvo 2827,SE03AL,publica,SAN CRISTOBAL,3,6,105353,100866,-34.62145,-58.404929
200439,Jardin de Infantes Integral Nº 01 DE 06º Jose Francisco de San Martin,Humberto 1º 2861,SE03AL,publica,SAN CRISTOBAL,3,6,105315,100717,-34.622793,-58.405342
201778,Esc. Normal Superior Nº 08 Presidente Julio Argentino Roca (sede),La Rioja 1042,SE03AL,publica,SAN CRISTOBAL,3,6,105153,100738,-34.622605,-58.407109
201489,Colegio Argentino Arabe Omar Bin Al-Jattab,Humberto 1º 3046,SE03AL,privada,SAN CRISTOBAL,3,6,105069,100642,-34.623471,-58.408024
201261,Esc. Primaria Comun Nº 16 DE 02º Presidente Mitre,Sarmiento 2832,SE03AM,publica,BALVANERA,3,2,105225,102501,-34.606712,-58.406335
202953,Escuela Infantil Nº 05 DE 02º,Sarmiento 2832,SE03AM,publica,BALVANERA,3,2,105225,102501,-34.606712,-58.406335
201699,Instituto San Jose,Azcuenaga 158,SE03AM,privada,BALVANERA,3,1,105736,102374,-34.607854,-58.400763
200914,Instituto Natan Gesang,Tte. Gral. Juan D. Peron 2461,SE03AM,privada,BALVANERA,3,1,105668,102435,-34.607305,-58.401504
202127,Instituto Argentino Gallego Santiago Apostol,Paso 51,SE03AM,privada,BALVANERA,3,2,105509,102223,-34.609217,-58.403236
200294,Jardin de Infantes Nucleado B DE 02º El Jardin del Abasto [S] (EPC 08),San Luis 3224 - Tucuman 3233,SE03AN,publica,BALVANERA,3,2,104786,103303,-34.599485,-58.411125
201713,Esc. Primaria Comun Nº 08 DE 02º Dr. Arturo Mateo Bas,Tucuman 3233 - San Luis 3224,SE03AN,publica,BALVANERA,3,2,104769,103210,-34.600323,-58.41131
201255,Esc. Primaria Comun Nº 23 DE 02º Tomas Manuel de Anchorena,Dr. Tomas Manuel de Anchorena 855,SE03AN,publica,BALVANERA,3,2,105051,103377,-34.598816,-58.408237
200294,Jardin de Infantes Nucleado B DE 02º El Jardin del Abasto (EPC 24),Jean Jaures 870,SE03AN,publica,BALVANERA,3,2,105107,103215,-34.600276,-58.407625
201263,Esc. Primaria Comun Nº 24 DE 02º Provincia de Catamarca,Jean Jaures 870,SE03AN,publica,BALVANERA,3,2,105107,103215,-34.600276,-58.407625
201703,Centro Educativo Toratenu (sede),Dr. T. M. de Anchorena 719,SE03AN,privada,BALVANERA,3,2,104995,103200,-34.600412,-58.408846
200174,Escuela Religiosa Israelita Argentina,Ecuador 928,SE03AN,privada,BALVANERA,3,2,105231,103337,-34.599176,-58.406274
202446,Escuela Mi Lugar,Tucuman 3070,SE03AN,privada,BALVANERA,3,2,104996,103128,-34.601061,-58.408835
202788,Jardin de Infantes El Duende Rojo,Jean Jaures 967,SE03AN,privada,BALVANERA,3,2,105187,103382,-34.598756,-58.406732
200580,Jardin de Infantes Nucleado B DE 01º (EPC 10),Lavalle 2366,SE03AO,publica,BALVANERA,3,1,105771,102850,-34.603563,-58.400384
200644,Esc. Primaria Comun Nº 10 DE 01º Presidente Manuel Quintana,Lavalle 2366,SE03AO,publica,BALVANERA,3,1,105771,102850,-34.603563,-58.400384
201262,Esc. Primaria Comun Nº 14 DE 02º Juan Martin de Pueyrredon,Av. Pueyrredon 630,SE03AO,publica,BALVANERA,3,2,105323,102936,-34.60279,-58.405269
201703,Centro Educativo Toratenu (anexo),Lavalle 2449,SE03AO,privada,BALVANERA,3,1,105662,102879,-34.603302,-58.401573
200563,Esc. de Comercio Nº 02 Dr. Antonio Bermejo,Riobamba 623 - Av. Callao 628,SE03AP,publica,BALVANERA,3,1,106355,103051,-34.601748,-58.394019
200720,Inst. de Educ. Superior Nº 01 Dra. Alicia Moreau de Justo,Av. Cordoba 2016/2008,SE03AP,publica,BALVANERA,3,1,106170,103258,-34.599883,-58.396037
201104,Inst. Superior del Profesorado Dr. Joaquin V. Gonzalez,Ayacucho 632,SE03AP,publica,BALVANERA,3,1,106200,103053,-34.601731,-58.395709
201856,La Gotita de Agua,Ayacucho 760,SE03AP,privada,BALVANERA,3,1,106186,103220,-34.600225,-58.395863
200691,Instituto Paula Montal,Viamonte 1892 - Riobamba 685,SE03AP,privada,BALVANERA,3,1,106362,103135,-34.60099,-58.393943
200690,Instituto de La Salle,Riobamba 650,SE03AP,privada,BALVANERA,3,1,106328,103069,-34.601586,-58.394313
201177,Esc. Normal Superior Nº 09 Domingo Faustino Sarmiento,Av. Callao 450 - Enrique Santos Discepolo 1850,SE03AQ,publica,BALVANERA,3,1,106491,102821,-34.60382,-58.392535
201233,Colegio del Salvador,Av. Callao 542,SE03AQ,privada,BALVANERA,3,1,106478,102945,-34.602703,-58.392677
200605,Instituto Corazon de Jesus,Ayacucho 474,SE03AQ,privada,BALVANERA,3,1,106217,102844,-34.603615,-58.395522
200888,Esc. Primaria Comun Nº 01 DE 06º Esteban de Luca,Adolfo Alsina 2499,SE03AR,publica,BALVANERA,3,6,105674,101906,-34.612073,-58.401435
201554,Jardin de Infantes Nucleado A DE 06º (EPC 01),Adolfo Alsina 2499,SE03AR,publica,BALVANERA,3,6,105674,101906,-34.612073,-58.401435
202214,Proyecto Sur,Adolfo Alsina 2185,SE03AR,privada,BALVANERA,3,3,106070,101941,-34.611755,-58.397118
200412,Instituto Don Orione,Hipolito Yrigoyen 2084,SE03AR,privada,BALVANERA,3,3,106180,102055,-34.610727,-58.39592
200290,Jardin de Infantes Nucleado B DE 03º (EPC 09),Moreno 2104,SE03AS,publica,BALVANERA,3,3,106145,101788,-34.613134,-58.396299
200524,Esc. Primaria Comun Nº 09 DE 03º Mariano Moreno,Moreno 2104,SE03AS,publica,BALVANERA,3,3,106145,101788,-34.613134,-58.396299
201501,Esc. de Comercio Nº 34 Monseñor Miguel de Andrea,Moreno 2135,SE03AS,publica,BALVANERA,3,3,106120,101819,-34.612855,-58.396572
202927,Jardin Maternal del H. Senado de la Nacion Jardin del Bosque,Moreno 2010,SE03AS,privada,BALVANERA,3,3,106266,101798,-34.612654,-58.394866
200425,Hogar Maternal N° 03 Isabel Conde de Hernandez,Moreno 1859,SE03AS,privada,BALVANERA,3,3,106482,101848,-34.612591,-58.392625
202586,Jardin Materno Infantil El Libro Magico,Adolfo Alsina 1926,SE03AS,privada,BALVANERA,3,3,106386,101940,-34.611763,-58.393673
200635,Esc. Primaria Comun Nº 21 DE 03º Carlos Pellegrini,Av. Entre Rios 1341 - Cochabamba 1834,SE03AT,publica,SAN CRISTOBAL,3,3,106579,100526,-34.624508,-58.391558
201500,Esc. Primaria Comun Nº 22 DE 03º Carlos Pellegrini,Av. Entre Rios 1359,SE03AT,publica,SAN CRISTOBAL,3,3,106580,100502,-34.624724,-58.391546
200601,Esc. Primaria Comun Nº 02 DE 06º Jose Maria Gutierrez,La Rioja 1846,SE04AA,publica,PARQUE PATRICIOS,4,6,105253,99638,-34.63252,-58.406012
201693,Esc. Normal Superior Nº 11 Dr. Ricardo Levene,Dean Funes 1821,SE04AA,publica,PARQUE PATRICIOS,4,6,105357,99688,-34.632069,-58.404878
201913,Esc. de Educacion Especial para Form. Integral (Jovenes y Adultos con Discapacidad Mental) Nº 36 Dr. Aurelio Martinez,Gral. Urquiza 2159,SE04AA,publica,PARQUE PATRICIOS,4,6,105084,99268,-34.635856,-58.407853
200012,Esc. Primaria Comun Nº 03 DE 04º Juan Maria Gutierrez,Rocha 1226,SE04AB,publica,BOCA,4,4,108745,98591,-34.641934,-58.367918
201522,Jardin de Infantes Nucleado C DE 04º (EPC 03),Rocha 1226,SE04AB,publica,BOCA,4,4,108745,98591,-34.641934,-58.367918
200010,Esc. Primaria Comun Nº 04 DE 04º Jose Jacinto Berruti,Benito Quinquela Martin 1081,SE04AB,publica,BOCA,4,4,108966,98542,-34.642374,-58.365507
200623,Esc. de Comercio Nº 01 Joaquin V. Gonzalez,Benito Quinquela Martin 1649,SE04AB,publica,BARRACAS,4,4,108274,98427,-34.643417,-58.373054
200029,Instituto San Pedro,Benito Quinquela Martin 1151,SE04AB,privada,BOCA,4,4,108873,98531,-34.642474,-58.366521
200076,Jardin de Infantes Comun Nº 03 DE 05º,Luzuriaga 1571,SE04AC,publica,BARRACAS,4,5,106957,97341,-34.653216,-58.38741
200474,Esc. Primaria Comun Nº 09 DE 05º Jose Pedro Varela,Luzuriaga 1571,SE04AC,publica,BARRACAS,4,5,106957,97341,-34.653216,-58.38741
201679,Esc. Primaria Comun Nº 11 DE 05º Republica de Haiti,Lafayette 1879,SE04AC,publica,BARRACAS,4,5,106689,96952,-34.656724,-58.39033
201673,Instituto Sagrado Corazon,Av. Velez Sarsfield 1351,SE04AC,privada,BARRACAS,4,5,106778,97649,-34.650441,-58.389365
200566,Esc. Primaria Comun Nº 11 DE 19º Ignacio Fermin Rodriguez,Pje. La Constancia 2524,SE04AD,publica,NUEVA POMPEYA,4,19,102853,97953,-34.647689,-58.432192
202278,Esc. Primaria Comun Nº 22 DE 19º Juana Azurduy,Mom 2358,SE04AD,publica,NUEVA POMPEYA,4,19,102824,98114,-34.646245,-58.432513
200037,Jardin de Infantes Nucleado B DE 19º Homero Manzi [S],Mom 2380,SE04AD,publica,NUEVA POMPEYA,4,19,102845,98097,-34.646409,-58.432261
200011,Esc. Primaria Comun Nº 19 DE 04º Republica Italiana,Rio Cuarto 1249,SE04AE,publica,BOCA,4,4,108809,97955,-34.647667,-58.367213
201522,Jardin de Infantes Nucleado C DE 04º (EPC 19),Rio Cuarto 1249,SE04AE,publica,BOCA,4,4,108809,97955,-34.647667,-58.367213
200521,Instituto Zaccaria,Av. Manuel A. Montes de Oca 1844,SE04AE,privada,BARRACAS,4,4,108328,97861,-34.648518,-58.372459
202352,Esc. de Educacion Media Nº 02 DE 04º Trabajadores Graficos,Av. Regimiento de los Patricios 1933,SE04AE,publica,BARRACAS,4,4,108720,97876,-34.64838,-58.368183
200053,Esc. Primaria Comun Nº 24 DE 04º Presidente Derqui,California 1925,SE04AF,publica,BARRACAS,4,4,108030,98009,-34.647187,-58.375711
201522,Jardin de Infantes Nucleado C DE 04º (EPC 24),California 1925,SE04AF,publica,BARRACAS,4,4,108030,98009,-34.647187,-58.375711
202011,Centro de Formacion Profesional Nº 01,Rio Cuarto 1993,SE04AF,publica,BARRACAS,4,4,108046,97696,-34.650008,-58.375534
201328,Esc. Normal Superior Nº 05 Gral. Don Martin Miguel de Güemes (anexo 3: Polideportivo),California 1851,SE04AF,publica,BARRACAS,4,4,108101,98045,-34.646862,-58.374937
200077,Esc. Primaria Comun Nº 20 DE 05º Nieves Escalada de Oromi,San Antonio 682,SE04AF,publica,BARRACAS,4,5,107851,97691,-34.650055,-58.377661
200654,Esc. Primaria Comun Nº 27 DE 05º Manuel de Sarratea,Vieytes 1469,SE04AF,publica,BARRACAS,4,5,107916,97721,-34.649784,-58.376952
200296,Esc. Primaria Comun Nº 13 DE 05º Fray Mamerto Esquiu,Salom 332,SE04AG,publica,BARRACAS,4,5,107402,98111,-34.646272,-58.382562
200843,Esc. Tecnica Nº 14 Libertad,Santa Magdalena 431,SE04AG,publica,BARRACAS,4,5,107529,97954,-34.647686,-58.381175
200620,Instituto Ntra. Sra. del Buen Consejo,Sta. M. del Buen Aire 953,SE04AG,privada,BARRACAS,4,5,107532,97226,-34.654249,-58.381136
203076,Instituto Cruz del Sur,Rio Cuarto 2560,SE04AG,privada,BARRACAS,4,5,107437,97511,-34.65168,-58.382175
200050,Esc. Primaria Comun Nº 17 DE 05º Pedro Meliton Ledesma,Traful 3835,SE04AH,publica,NUEVA POMPEYA,4,5,104441,97518,-34.651634,-58.414856
200476,Esc. Primaria Comun Nº 23 DE 05º Lorenzo Anadon,Traful 3847,SE04AH,publica,NUEVA POMPEYA,4,5,104405,97514,-34.651671,-58.415249
200477,Jardin de Infantes Comun Nº 04 DE 05º (anexo),Traful 3847,SE04AH,publica,NUEVA POMPEYA,4,5,104405,97514,-34.651671,-58.415249
200676,Instituto Nueva Pompeya,Fournier 3157,SE04AH,privada,NUEVA POMPEYA,4,19,104153,97437,-34.652366,-58.417997
200411,Instituto San Antonio de Padua,Av. Tilcara 3178,SE04AH,privada,NUEVA POMPEYA,4,19,104089,97387,-34.652817,-58.418695
201682,Esc. Primaria Comun Nº 24 DE 05º Contraalmirante Martin Guerrico,Lynch 3536,SE04AI,publica,NUEVA POMPEYA,4,5,104909,97468,-34.652083,-58.409751
202828,Escuela Infantil Nº 13 DE 05º,Diogenes Taborda 1096,SE04AI,publica,NUEVA POMPEYA,4,5,104968,97524,-34.651578,-58.409108
201681,Instituto San Vicente de Paul,Alberto Einstein 599,SE04AI,privada,NUEVA POMPEYA,4,5,104665,97441,-34.652327,-58.412412
201680,Ntra. Sra. de la Divina Providencia,Cachi 724,SE04AI,privada,NUEVA POMPEYA,4,5,104781,97574,-34.651128,-58.411148
202567,Escuela Infantil Pimpinela,Lynch 3735,SE04AI,privada,NUEVA POMPEYA,4,5,104627,97427,-34.652486,-58.412896
200154,Esc. Primaria Comun Nº 02 DE 19º Dr. Genaro Sisto,Tilcara 3365,SE04AJ,publica,NUEVA POMPEYA,4,19,103929,97180,-34.654683,-58.42044
201058,Jardin de Infantes Nucleado A DE 19º La Calesita de Pompeya (EPC 02),Tilcara 3365,SE04AJ,publica,NUEVA POMPEYA,4,19,103929,97180,-34.654683,-58.42044
200418,Esc. Primaria Comun Nº 06 DE 19º Dr. Adolfo Saldias,Echauri 1576,SE04AJ,publica,NUEVA POMPEYA,4,19,104207,96883,-34.657359,-58.417406
201475,Esc. Tecnica Nº 33 Fundicion Maestranza del Plumerillo,Av. Intendente Francisco Rabanal 1549,SE04AJ,publica,NUEVA POMPEYA,4,19,103886,97050,-34.655855,-58.420908
200520,Esc. Primaria Comun Nº 08 DE 04º Carlos Della Penna,Pje. Dr. Eduardo Braun Menendez 260 - Manuel Galvez 156,SE04AK,publica,BOCA,4,4,109233,100204,-34.62739,-58.362613
200542,Jardin de Infantes Comun Nº 02 DE 04º Carlos Della Penna,Pje. Dr. Eduardo Braun Menendez 260 - Manuel Galvez 156,SE04AK,publica,BOCA,4,4,109233,100204,-34.62739,-58.362613
201900,Escuela Infantil Nº 03 DE 04º,Azopardo 1504,SE04AK,publica,BOCA,4,4,108906,100418,-34.625464,-58.366181
200793,Esc. Integral Interdisciplinaria Nº 04 Juan de Dios Filiberto,Av. Almte. Brown 473,SE04AK,publica,BOCA,4,4,109067,99909,-34.630051,-58.36442
203007,Escuela Infantil Nº 11 DE 04º Rosita Quiroga,Av. Almte. Brown y Cnel. de Marina Tomas Espora,SE04AK,publica,BOCA,4,4,108965,99984,-34.629376,-58.365533
201646,Instituto Madre de los Emigrantes,Necochea 330,SE04AK,privada,BOCA,4,4,109115,100176,-34.627643,-58.363899
200540,Esc. Primaria Comun Nº 01 DE 04º Almirante Guillermo Brown,Aristobulo del Valle 471,SE04AL,publica,BOCA,4,4,109337,99560,-34.633194,-58.361472
201671,Esc. de Educacion Media Nº 07 DE 04º Escuela de la Ribera,Aristobulo del Valle 471,SE04AL,publica,BOCA,4,4,109337,99560,-34.633194,-58.361472
200002,Esc. Primaria Comun Nº 02 DE 04º Carlos Ramon Vignale,Wenceslao Villafañe 453,SE04AL,publica,BOCA,4,4,109315,99661,-34.632284,-58.361713
200596,Esc. Primaria Comun Nº 14 DE 04º Agustin Rafael Caffarena,Necochea 1136,SE04AL,publica,BOCA,4,4,109684,99440,-34.634273,-58.357686
202850,Esc. de Educacion Media Nº 03 DE 04º,Palos 210 esq. Villafañe,SE04AL,publica,BOCA,4,4,109128,99580,-34.633016,-58.363751
202745,Escuela Infantil Nº 07 DE 04º Casa Amarilla,Palos 210 esq. Blanes,SE04AL,publica,BOCA,4,4,109113,99594,-34.63289,-58.363915
200606,Jardin de Infantes Integral Nº 10 DE 04º,Martin Rodriguez 425,SE04AL,publica,BOCA,4,4,109215,99630,-34.632564,-58.362803
200772,Esc. Primaria Comun Nº 07 DE 05º Juan de Garay,Av. Caseros 734,SE04AM,publica,BARRACAS,4,5,108106,100226,-34.627201,-58.374903
201596,Jardin de Infantes Nucleado A DE 05º [S] (EPC 07),Av. Caseros 734,SE04AM,publica,BARRACAS,4,5,108106,100226,-34.627201,-58.374903
201621,Escuela Infantil Nº 06 DE 05º Rosario Vera Peñaloza,Av. Manuel A. Montes de Oca 16,SE04AM,publica,BARRACAS,4,5,107856,100058,-34.628718,-58.377628
201456,Esc. Tecnica Nº 04 Republica del Libano,Av. Manuel A. Montes de Oca 121,SE04AM,publica,BARRACAS,4,5,107890,99906,-34.630087,-58.377256
200770,Instituto Vitra,Av. Montes de Oca 110,SE04AM,privada,BARRACAS,4,5,107926,99941,-34.629772,-58.376863
203031,Esc. Superior de Educacion Artistica en Artes Visuales Manuel Belgrano,Wenceslao Villafañe 1342,SE04AN,publica,BARRACAS,4,4,108418,99376,-34.634861,-58.371492
200472,Esc. Primaria Comun Nº 01 DE 05º Estado Plurinacional de Bolivia,Gral. Hornos 530,SE04AN,publica,BARRACAS,4,5,107898,99486,-34.633873,-58.377165
200470,Esc. Primaria Comun Nº 03 DE 05º Bernardo de Irigoyen,Av. Manuel A. Montes de Oca 439/455,SE04AN,publica,BARRACAS,4,5,108024,99499,-34.633755,-58.375791
201596,Jardin de Infantes Nucleado A DE 05º (EPC 03),Av. Manuel A. Montes de Oca 439/455,SE04AN,publica,BARRACAS,4,5,108024,99499,-34.633755,-58.375791
200455,Escuela Integral Rabino Elias Suli,Wenceslao Villafañe 1539,SE04AN,privada,BARRACAS,4,4,108224,99372,-34.634899,-58.373608
200049,Instituto Parroquial Sta. Lucia,Isabel La Catolica 221,SE04AN,privada,BARRACAS,4,5,108158,99411,-34.634547,-58.374328
200484,Esc. Primaria Comun Nº 15 DE 05º Arzobispo Mariano Antonio Espinosa,Av. Manuel A. Montes de Oca 807,SE04AO,publica,BARRACAS,4,5,108088,99111,-34.637252,-58.375089
201596,Jardin de Infantes Nucleado A DE 05º (EPC 15),Av. Manuel A. Montes de Oca 807,SE04AO,publica,BARRACAS,4,5,108088,99111,-34.637252,-58.375089
200508,Instituto Sta. Felicitas,Pinzon 1480,SE04AO,privada,BARRACAS,4,4,108339,99132,-34.637061,-58.372352
201753,Instituto Tiempo Educativo,Gral. Hornos 882,SE04AO,privada,BARRACAS,4,5,107970,99142,-34.636974,-58.376376
201482,Instituto Sta. Maria del Rosario,Herrera 575,SE04AO,privada,BARRACAS,4,5,107782,99220,-34.636272,-58.378427
202757,Jardin Tiempo de Duendes,Aristobulo del Valle 1725,SE04AO,privada,BARRACAS,4,5,108028,99248,-34.636025,-58.375731
201840,Esc. Primaria Comun Nº 11 DE 04º Antonio J. Bucich,Brandsen 1057 - Hernandarias 850,SE04AP,publica,BOCA,4,4,108782,99136,-34.637021,-58.36752
202202,Jardin de Infantes Integral Nº 04 DE 04º Tomas Liberti,Hernandarias 850 - Brandsen 1057,SE04AP,publica,BOCA,4,4,108740,99170,-34.636715,-58.367978
200523,Esc. Primaria Comun Nº 13 DE 04º Republica de Chile,Suarez 1145,SE04AP,publica,BOCA,4,4,108677,99020,-34.638068,-58.368664
201522,Jardin de Infantes Nucleado C DE 04º (EPC 13),Suarez 1145,SE04AP,publica,BOCA,4,4,108677,99020,-34.638068,-58.368664
201532,Esc. Primaria Comun Nº 18 DE 04º Provincia de La Rioja,Hernandarias 556,SE04AP,publica,BOCA,4,4,108708,99480,-34.633921,-58.368331
200037,Jardin de Infantes Nucleado B DE 19º Homero Manzi (EPC 01),Alagon 300 - Cnel. Pagola 4181,SE04AQ,publica,NUEVA POMPEYA,4,19,103876,98416,-34.643542,-58.421024
200038,Esc. Primaria Comun Nº 01 DE 19º Maria Silventi de Amato,Alagon 300 - Cnel. Pagola 4181,SE04AQ,publica,NUEVA POMPEYA,4,19,103876,98416,-34.643542,-58.421024
200041,Esc. Primaria Comun Nº 05 DE 19º Provincia de Corrientes,Av. Caseros 4050,SE04AQ,publica,NUEVA POMPEYA,4,19,103828,98804,-34.640044,-58.421549
200037,Jardin de Infantes Nucleado B DE 19º Homero Manzi (EPC 10),Anibal Pedro Arbeletche 1052/1062,SE04AQ,publica,NUEVA POMPEYA,4,19,103636,98176,-34.645706,-58.42364
200043,Esc. Primaria Comun Nº 10 DE 19º Juan Andres de la Peña,Anibal Pedro Arbeletche 1062/1052,SE04AQ,publica,NUEVA POMPEYA,4,19,103628,98168,-34.645778,-58.423727
200584,Inst. de Ens. Superior en Lenguas Vivas Juan Ramon Fernandez (anexo),Anibal Pedro Arbeletche 1052/1062,SE04AQ,publica,NUEVA POMPEYA,4,19,103628,98168,-34.645778,-58.423727
200042,Esc. Primaria Comun Nº 07 DE 19º Aeronautica Argentina (sede),Quilmes 473,SE04AR,publica,NUEVA POMPEYA,4,19,104194,98262,-34.644929,-58.417554
200042,Esc. Primaria Comun Nº 07 DE 19º Aeronautica Argentina (anexo),Quilmes 484,SE04AR,publica,NUEVA POMPEYA,4,19,104226,98252,-34.645019,-58.417205
202301,Esc. de Educacion Media Nº 04 DE 19º Homero Manzi,Av. Saenz 631,SE04AR,publica,NUEVA POMPEYA,4,19,104298,98035,-34.646974,-58.416419
200298,Esc. Primaria Comun Nº 19 DE 05º Provincia de Formosa,Elia 473,SE04AS,publica,PARQUE PATRICIOS,4,5,104998,98410,-34.643591,-58.408786
201729,Escuela Infantil Nº 05 DE 05º Maria Eva Duarte de Peron,Prof. Dr. Pedro Chutro 3380,SE04AS,publica,PARQUE PATRICIOS,4,5,104834,98468,-34.643069,-58.410575
200062,Esc. Integral Interdisciplinaria Nº 05,Jose A. Cortejarena 3350,SE04AS,publica,PARQUE PATRICIOS,4,5,104976,98352,-34.644114,-58.409025
201687,Esc. Primaria Comun Nº 02 DE 05º Patricios,Av. Almafuerte 66 - Pepiri 135,SE04AT,publica,PARQUE PATRICIOS,4,5,104836,98874,-34.639409,-58.410555
202203,Jardin de Infantes Integral Nº 08 DE 05º Dr. Genaro Giacobini,Av. Almafuerte 66 - Pepiri 135,SE04AT,publica,PARQUE PATRICIOS,4,5,104836,98874,-34.639409,-58.410555
200477,Jardin de Infantes Comun Nº 04 DE 05º (sede),Cachi 77,SE04AT,publica,NUEVA POMPEYA,4,5,104583,98341,-34.644215,-58.413312
200589,Esc. Primaria Comun Nº 14 DE 05º Provincia de San Luis,Cachi 77,SE04AT,publica,NUEVA POMPEYA,4,5,104583,98341,-34.644215,-58.413312
203095,Jardin de Infantes Integral Nº 15 DE 05º,Andres Ferreyra 3705,SE04AT,publica,NUEVA POMPEYA,4,5,104495,98316,-34.644441,-58.414271
203163,Jardin de Infantes Integral Nº 18 DE 05º,Uspallata 3325,SE04AT,publica,PARQUE PATRICIOS,4,5,104912,98804,-34.640055,-58.409724
203185,Esc. Primaria Comun Nº 21 DE 05º,Andres Ferreyra 3749,SE04AT,publica,NUEVA POMPEYA,4,5,104475,98314,-34.644414,-58.414494
201688,Instituto Privado Inmaculada Concepcion (sede),Achala 3679,SE04AT,privada,NUEVA POMPEYA,4,5,104396,98563,-34.642214,-58.415353
201688,Instituto Privado Inmaculada Concepcion (anexo),Tte. Cnel. Gregorio Pomar 3656,SE04AT,privada,NUEVA POMPEYA,4,5,104437,98769,-34.640357,-58.414906
203003,Jardin Rayito de Sol II,Uspallata 3400,SE04AT,privada,PARQUE PATRICIOS,4,5,104752,98826,-34.639865,-58.411463
202803,Escuela Infantil Nº 11 DE 05º Paso de los Patos (anexo),Los Patos 3042,SE04AU,publica,PARQUE PATRICIOS,4,5,105295,98656,-34.641372,-58.405548
202943,Esc. Primaria Comun Nº 28 DE 05º,Los Patos 3042,SE04AU,publica,PARQUE PATRICIOS,4,5,105295,98656,-34.641372,-58.405548
200838,Esc. Tecnica Nº 07 Dolores Lavalle de Lavalle,Zavaleta 204,SE04AU,publica,PARQUE PATRICIOS,4,5,105525,98886,-34.639297,-58.403041
202803,Escuela Infantil Nº 11 DE 05º Paso de los Patos (sede),Los Patos 3004,SE04AU,publica,PARQUE PATRICIOS,4,5,105325,98660,-34.641336,-58.40522
202033,Ciclo Basico de Formacion Ocupacional Nº 01 Evita,Los Patos 3080,SE04AU,publica,PARQUE PATRICIOS,4,5,105266,98653,-34.641399,-58.405864
200009,Esc. Primaria Comun Nº 09 DE 04º Benito Quinquela Martin,Av. Don Pedro de Mendoza 1835,SE04AV,publica,BOCA,4,4,109378,98915,-34.639008,-58.361017
200595,Jardin de Infantes Integral Nº 01 DE 04º Benito Quinquela Martin,Gral. Gregorio Araoz de Lamadrid 648,SE04AV,publica,BOCA,4,4,109341,98973,-34.638486,-58.361422
200499,Esc. Tecnica Nº 31 Maestro Quinquela,Av. Don Pedro de Mendoza 1777,SE04AV,publica,BOCA,4,4,109483,98931,-34.638863,-58.359872
200001,Escuela Evangelica William C. Morris,Olavarria 677 - Suarez 682,SE04AV,privada,BOCA,4,4,109255,99074,-34.637576,-58.362361
200104,Instituto Maria Auxiliadora,Palos 560,SE04AV,privada,BOCA,4,4,109297,99253,-34.635962,-58.361905
201788,Esc. Primaria Comun Nº 10 DE 04º Gral. Araoz de Lamadrid,Gral. Gregorio Araoz de Lamadrid 499,SE04AW,publica,BOCA,4,4,109531,99093,-34.637402,-58.359351
200541,Instituto Privado Hogar Infancia de la Boca,Martin Rodriguez 864,SE04AW,privada,BOCA,4,4,109435,99303,-34.63551,-58.3604
200503,Colegio San Juan Evangelista,Olavarria 486,SE04AW,privada,BOCA,4,4,109515,99161,-34.636789,-58.359526
202538,Escuela Infantil Color Esperanza,Brandsen 484,SE04AW,privada,BOCA,4,4,109419,99347,-34.635114,-58.360575
200617,Jardin de Infantes Nucleado B DE 05º (EPC 18),Av. Caseros 2152,SE04AX,publica,PARQUE PATRICIOS,4,5,106463,99373,-34.634902,-58.392814
201498,Esc. Primaria Comun Nº 18 DE 05º Juan Enrique Pestalozzi,Av. Caseros 2152,SE04AX,publica,PARQUE PATRICIOS,4,5,106463,99373,-34.634902,-58.392814
201182,Esc. de Comercio Nº 18 Reino de Suecia,Juan Carlos Gomez 253,SE04AX,publica,PARQUE PATRICIOS,4,5,106608,99106,-34.637308,-58.39123
201178,Esc. Primaria Comun Nº 25 DE 05º Marcos Paz,Av. Amancio Alcorta 2502,SE04AY,publica,PARQUE PATRICIOS,4,5,106173,98518,-34.642688,-58.39596
203039,Jardin de Infantes Integral Nº 14 DE 05º,Manuel Garcia 370,SE04AY,publica,PARQUE PATRICIOS,4,5,106208,98784,-34.640204,-58.395553
200485,Esc. Primaria Comun Nº 26 DE 05º Brigadier Miguel de Azcuenaga,Pichincha 1873,SE04AZ,publica,PARQUE PATRICIOS,4,5,106143,99790,-34.631142,-58.396304
200617,Jardin de Infantes Nucleado B DE 05º (EPC 26),Pichincha 1873,SE04AZ,publica,PARQUE PATRICIOS,4,5,106143,99790,-34.631142,-58.396304
202827,Instituto de Formacion y Educacion Integral,Av. Juan de Garay 2482 - Alberti 1626,SE04AZ,privada,PARQUE PATRICIOS,4,6,105840,100035,-34.628948,-58.399613
200057,Esc. Integral Interdisciplinaria Nº 06,Inclan 3146,SE04BA,publica,PARQUE PATRICIOS,4,6,104989,99791,-34.631142,-58.408892
200600,Instituto San Vicente de Paul,24 de Noviembre 1665,SE04BA,privada,PARQUE PATRICIOS,4,6,104890,99834,-34.630755,-58.409972
202562,El Arca de Noe,Av. Juan de Garay 3180,SE04BA,privada,PARQUE PATRICIOS,4,6,104928,99917,-34.629995,-58.409548
200135,Esc. Primaria Comun Nº 01 DE 06º Dr. Carlos Saavedra Lamas - Inst. F. F. Bernasconi,Catulo Castillo 2750 - Rondeau 2751 - Catamarca 2099,SE04BB,publica,PARQUE PATRICIOS,4,6,105612,99506,-34.633708,-58.402096
200441,Esc. Primaria Comun Nº 04 DE 06º Enrique Banchs - Inst. F. F. Bernasconi,Rondeau 2751 - Catulo Castillo 2750 - Catamarca 2099,SE04BB,publica,PARQUE PATRICIOS,4,6,105650,99384,-34.634808,-58.40168
200442,Jardin de Infantes Comun Nº 05 DE 06º - Inst. F. F. Bernasconi,Catulo Castillo 2750 - Rondeau 2751 - Catamarca 2099,SE04BB,publica,PARQUE PATRICIOS,4,6,105612,99506,-34.633708,-58.402096
201571,Esc. Primaria Comun Nº 02 DE 06º Dr. Rafael Bielsa - Inst. F. F. Bernasconi,Catulo Castillo 2750 - Rondeau 2751 - Catamarca 2099,SE04BB,publica,PARQUE PATRICIOS,4,6,105612,99506,-34.633708,-58.402096
201572,Esc. Primaria Comun Nº 03 DE 06º Dr. Juan Angel Golfarini - Inst. F. F. Bernasconi,Rondeau 2751 - Catulo Castillo 2750 - Catamarca 2099,SE04BB,publica,PARQUE PATRICIOS,4,6,105650,99384,-34.634808,-58.40168
202467,Jardin de Infantes Integral Nº 10 DE 06º - Inst. F. F. Bernasconi,Rondeau 2751 - Catamarca 2099 - Catulo Castillo 2750,SE04BB,publica,PARQUE PATRICIOS,4,6,105650,99384,-34.634808,-58.40168
201899,Jardin Maternal Nº 07 DE 06º Delfina Marull de Sarda,Catulo Castillo 2856 - Esteban de Luca 2151,SE04BB,publica,PARQUE PATRICIOS,4,6,105551,99418,-34.634502,-58.40276
201217,Instituto La Inmaculada,Av. Caseros 2776 - Lavarden 80 - Patagones 2791/2767,SE04BB,privada,PARQUE PATRICIOS,4,5,105649,99179,-34.636656,-58.40169
200150,Instituto Ntra. Sra. de Lujan,Av. Jujuy 2179,SE04BB,privada,PARQUE PATRICIOS,4,6,105869,99323,-34.635356,-58.399292
201522,Jardin de Infantes Nucleado C DE 04º [S] (EPC 28),Jose Aaron Salmun Feijoo 1073,SE04BC,publica,BARRACAS,4,4,107842,98353,-34.644087,-58.377765
201581,Esc. Primaria Comun Nº 28 DE 04º Francisco Pascasio Moreno,Jose Aaron Salmun Feijoo 1073,SE04BC,publica,BARRACAS,4,4,107842,98353,-34.644087,-58.377765
201216,Esc. Tecnica Nº 10 Fray Luis Beltran,Vieytes 942,SE04BC,publica,BARRACAS,4,5,107711,98421,-34.643475,-58.379194
201328,Esc. Normal Superior Nº 05 Gral. Don Martin Miguel de Güemes (sede),Arcamendia 719/793/743,SE04BC,publica,BARRACAS,4,5,107622,98698,-34.640979,-58.380168
201525,Liceo Comercial Nº 03 Jose Manuel Estrada,Arcamendia 743/719/793,SE04BC,publica,BARRACAS,4,5,107634,98663,-34.641294,-58.380036
201328,Esc. Normal Superior Nº 05 Gral. Don Martin Miguel de Güemes (anexo 2),Av. Suarez 2123,SE04BC,publica,BARRACAS,4,5,107619,98584,-34.642006,-58.380199
201216,Polideportivo 9 de Julio,Av. Suarez 1851,SE04BC,publica,BARRACAS,4,5,107949,98846,-34.639642,-58.376602
201327,Centro Educativo para Niños en Tiempos y Espacios Singulares Nº 01 Maud Mannoni,Dr. Ramon Carrillo 317,SE04BD,publica,BARRACAS,4,5,107425,99170,-34.636748,-58.38219
200334,Escuela Parroquial Sta. Elisa,Salta 2290,SE04BD,privada,BARRACAS,4,5,107421,99478,-34.633927,-58.382372
202279,Esc. Primaria Comun Nº 12 DE 05º Horacio Quiroga,Montesquieu y Rio Cuarto,SE04BE,publica,BARRACAS,4,5,106096,97415,-34.652719,-58.396808
201181,Escuela Infantil Nº 07 DE 05º Padre Daniel de la Sierra,Alvarado 3295,SE04BE,publica,BARRACAS,4,5,106309,97882,-34.648337,-58.394448
202470,Escuela Infantil Nº 12 DE 05º,Lavarden y Rio Cuarto,SE04BE,publica,BARRACAS,4,5,106024,97415,-34.652755,-58.397457
202505,Esc. de Educacion Media Nº 06 DE 05º,Av. Iriarte y Montesquieu,SE04BE,publica,BARRACAS,4,5,106082,97493,-34.651762,-58.396829
201839,Esc. Primaria Comun Nº 10 DE 05º Dean Diego Estanislao de Zavaleta,Iguazu 1110,SE04BF,publica,BARRACAS,4,5,105385,97697,-34.649917,-58.404597
202200,Jardin de Infantes Integral Nº 10 DE 05º,Av. Iriarte 3880,SE04BF,publica,BARRACAS,4,5,105426,97607,-34.650831,-58.404055
200473,Esc. Primaria Comun Nº 16 DE 05º Sabina Bove de Bozalla,Av. Amancio Alcorta 3402,SE04BG,publica,NUEVA POMPEYA,4,5,105119,97431,-34.652371,-58.407424
200236,Esc. Primaria Comun Nº 18 DE 02º Alejandro Carbo,Mario Bravo 234,SE05AA,publica,ALMAGRO,5,2,104195,102367,-34.607925,-58.417563
200975,Jardin de Infantes Nucleado D DE 02º (EPC 18),Mario Bravo 234,SE05AA,publica,ALMAGRO,5,2,104195,102367,-34.607925,-58.417563
200214,Esc. Primaria Comun Nº 22 DE 02º Carlos Javier Benielli,Sanchez de Bustamante 260,SE05AA,publica,ALMAGRO,5,2,104425,102540,-34.606364,-58.415057
200975,Jardin de Infantes Nucleado D DE 02º (EPC 22),Sanchez de Bustamante 260,SE05AA,publica,ALMAGRO,5,2,104425,102540,-34.606364,-58.415057
202216,Instituto Dulce de Leche,Sarmiento 3711,SE05AA,privada,ALMAGRO,5,2,104223,102654,-34.605337,-58.41726
200660,Esc. Primaria Comun Nº 04 DE 06º Salvador Maria del Carril,Quintino Bocayuva 620,SE05AB,publica,ALMAGRO,5,6,103760,101116,-34.619203,-58.422301
201545,Jardin de Infantes Nucleado B DE 06º Maestro Escultor Francisco Reyes (EPC 04),Quintino Bocayuva 620,SE05AB,publica,ALMAGRO,5,6,103760,101116,-34.619203,-58.422301
201803,Colegio de las Victorias,Jose Marmol 780,SE05AB,privada,BOEDO,5,6,103531,100711,-34.622855,-58.424796
201873,Instituto Educativo Huellas,Agrelo 3668,SE05AB,privada,ALMAGRO,5,6,104181,101164,-34.618769,-58.41771
202060,Escuela Infantil Amanecer,Yapeyu 582,SE05AB,privada,ALMAGRO,5,6,103840,101176,-34.618662,-58.421428
200766,Instituto San Antonio,Mexico 4050,SE05AB,privada,ALMAGRO,5,8,103676,100986,-34.620375,-58.423216
200879,Jardin de Infantes Nucleado D DE 07º Los Sueños de Juanito [S] (EPC 23),Pringles 263,SE05AC,publica,ALMAGRO,5,7,103286,102203,-34.609406,-58.427473
201402,Esc. Primaria Comun Nº 23 DE 07º Gral. Belgrano,Pringles 263,SE05AC,publica,ALMAGRO,5,7,103286,102203,-34.609406,-58.427473
200685,Instituto Privado Argentino Japones Nichia Gakuin en Buenos Aires,Yatay 261 - Pringles 268,SE05AC,privada,ALMAGRO,5,7,103203,102193,-34.609497,-58.428378
201345,Escuela Tecnica ORT 1,Yatay 240 - Rio de Janeiro 471,SE05AC,privada,ALMAGRO,5,7,103084,102141,-34.609966,-58.429675
201346,Instituto Sudamericano Modelo,Rio de Janeiro 663,SE05AC,privada,ALMAGRO,5,7,103015,102391,-34.607712,-58.430429
200661,Esc. Primaria Comun Nº 22 DE 06º Martina Silva de Gurruchaga,Av. Boedo 657,SE05AD,publica,ALMAGRO,5,6,104268,100981,-34.620418,-58.416761
201309,Jardin de Infantes Integral Nº 02 DE 06º Federico Fröbel,Av. Independencia 3354,SE05AD,publica,BOEDO,5,6,104585,100927,-34.620904,-58.413304
201851,Jardin de Infantes Integral Nº 08 DE 06º Maria Angela Schiavoni de Lopez,Av. Boedo 650/654,SE05AD,publica,ALMAGRO,5,6,104300,100987,-34.620364,-58.416412
201298,Esc. Tecnica Nº 29 Reconquista de Buenos Aires,Av. Boedo 760,SE05AD,publica,BOEDO,5,6,104315,100829,-34.621788,-58.416247
200329,Esc. Primaria Comun Nº 14 DE 06º Intendente Alvear,Castro 954,SE05AE,publica,BOEDO,5,6,103933,100604,-34.623818,-58.420412
200889,Jardin de Infantes Comun Nº 04 DE 06º Mariano Boedo,Castro Barros 965,SE05AE,publica,BOEDO,5,6,104035,100591,-34.623935,-58.419299
201764,Escuela Generacion del Futuro,Carlos Calvo 3850,SE05AE,privada,BOEDO,5,6,103994,100498,-34.624773,-58.419746
201939,Instituto de Educacion Especial y Formacion Laboral Ntra. Sra. de Lujan,Carlos Calvo 3895,SE05AE,privada,BOEDO,5,6,103950,100524,-34.624539,-58.420226
202644,Escuela Infantil Cyberpibes,Av. San Juan 3788,SE05AE,privada,BOEDO,5,6,104102,100364,-34.625974,-58.418566
202680,Escuela Infantil Crema y Chocolate,Castro Barros 979,SE05AE,privada,BOEDO,5,6,104034,100570,-34.624106,-58.419312
200973,Colegio Nº 03 Mariano Moreno,Av. Rivadavia 3577 - Bartolome Mitre 3558,SE05AF,publica,ALMAGRO,5,2,104263,102058,-34.61071,-58.41682
203034,Esc. Superior de Educacion Artistica en Arte Ceramico Nº 01,Bulnes 45,SE05AF,publica,ALMAGRO,5,2,104114,102094,-34.610386,-58.418445
200974,Instituto Tierra Santa,Bartolome Mitre 3443,SE05AF,privada,ALMAGRO,5,2,104388,102214,-34.609303,-58.415458
201434,Esc. Primaria Comun Nº 08 DE 06º Almafuerte,Maza 1935/1913,SE05AG,publica,BOEDO,5,6,104476,99467,-34.634065,-58.414485
203162,Jardin de Infantes Comun Nº 12 DE 06º,Maza 1913/1935,SE05AG,publica,BOEDO,5,6,104470,99492,-34.63384,-58.41455
201555,Esc. Primaria Comun Nº 23 DE 06º Provincia de Entre Rios,Av. Boedo 1935,SE05AG,publica,BOEDO,5,6,104297,99187,-34.63659,-58.416435
201304,Instituto San Bartolome,Av. Chiclana 3659,SE05AG,privada,BOEDO,5,6,104387,99160,-34.636833,-58.415454
201301,Esc. Primaria Comun Nº 25 DE 06º Paula Albarracin de Sarmiento,Tarija 4136,SE05AH,publica,BOEDO,5,6,103739,99933,-34.629867,-58.422524
201659,Esc. Primaria Comun Nº 26 DE 06º Republica de Colombia,Av. Juan de Garay 3972,SE05AH,publica,BOEDO,5,6,103957,99692,-34.632039,-58.420146
201303,Esc. de Comercio Nº 22 Gustavo Adolfo Martinez Zuviria,Constitucion 4154,SE05AH,publica,BOEDO,5,6,103701,100024,-34.629047,-58.422939
200940,Instituto Maria Auxiliadora,Av. Juan de Garay 4353,SE05AH,privada,BOEDO,5,8,103522,99681,-34.63214,-58.42489
200975,Jardin de Infantes Nucleado D DE 02º (EPC 19),Francisco Acuña de Figueroa 850,SE05AI,publica,ALMAGRO,5,2,103749,103119,-34.601147,-58.422429
201526,Esc. Primaria Comun Nº 19 DE 02º Florencio Balcarce,Francisco Acuña de Figueroa 850,SE05AI,publica,ALMAGRO,5,2,103749,103119,-34.601147,-58.422429
201448,Esc. Tecnica Nº 30 Dr. Norberto Piñero,Jeronimo Salguero 920,SE05AI,publica,ALMAGRO,5,2,104052,103321,-34.599325,-58.419127
201469,Escuela Infantil Nº 02 DE 02º Pampita,Guardia Vieja 3950,SE05AI,publica,ALMAGRO,5,2,103978,103149,-34.600876,-58.419933
200307,Instituto Betania,Francisco Acuña de Figueroa 855,SE05AI,privada,ALMAGRO,5,2,103774,103130,-34.601048,-58.422157
202053,Jardin Retoño,Guardia Vieja 3983,SE05AI,privada,ALMAGRO,5,2,103951,103177,-34.600624,-58.420227
201221,Instituto William C. Morris,Lavalle 3761,SE05AI,privada,ALMAGRO,5,2,104101,103296,-34.599551,-58.418593
201225,Instituto Inmaculada Concepcion,Mario Bravo 563,SE05AJ,privada,ALMAGRO,5,2,104303,102943,-34.602732,-58.416389
201256,Instituto Ntra. Sra. del Valle,San Luis 3358,SE05AJ,privada,ALMAGRO,5,2,104615,103312,-34.599404,-58.412989
202932,Violeta y Amarillo,Mario Bravo 976,SE05AJ,privada,ALMAGRO,5,2,104321,103428,-34.59836,-58.416195
200656,Esc. Primaria Comun Nº 18 DE 06º Dr. Antonio Bermejo,Av. Belgrano 3767,SE05AK,publica,ALMAGRO,5,6,104013,101506,-34.615687,-58.419544
201888,Instituto Integral de Educacion,Av. Hipolito Yrigoyen 3700,SE05AK,privada,ALMAGRO,5,6,104111,101639,-34.614487,-58.418476
202466,Jardin Maternal Nº 09 DE 06º,Don Bosco 4050,SE05AL,publica,ALMAGRO,5,6,103725,101724,-34.613723,-58.422685
200872,Jardin de Infantes Nucleado A DE 08º (EPC 16),Don Bosco 4200,SE05AL,publica,ALMAGRO,5,8,103548,101699,-34.613949,-58.424615
201351,Esc. Primaria Comun Nº 16 DE 08º Jose Maria Ramos Mejia,Don Bosco 4200,SE05AL,publica,ALMAGRO,5,8,103548,101699,-34.613949,-58.424615
200078,Instituto Pio IX,Yapeyu 197,SE05AL,privada,ALMAGRO,5,6,103775,101737,-34.613605,-58.42214
200658,Instituto San Francisco de Sales,Av. Hipolito Yrigoyen 3900,SE05AL,privada,ALMAGRO,5,6,103837,101595,-34.614885,-58.421463
200655,Instituto Maria Auxiliadora,Yapeyu 132,SE05AL,privada,ALMAGRO,5,6,103809,101718,-34.613776,-58.421769
201865,Instituto Dr. Alberto Schweitzer,Av. Rivadavia 4044 - Yapeyu 51/57,SE05AL,privada,ALMAGRO,5,6,103711,101867,-34.612434,-58.422838
200446,Instituto America del Sur,Av. Rivadavia 4118,SE05AL,privada,ALMAGRO,5,8,103611,101813,-34.612921,-58.423928
200901,Jardin de Infantes Integral Nº 02 DE 08º Jorge Eduardo Coll,Av. Hipolito Yrigoyen 4238,SE05AM,publica,ALMAGRO,5,8,103371,101570,-34.615112,-58.426544
200855,Instituto Sagrado Corazon,Av. Hipolito Yrigoyen 4350,SE05AM,privada,ALMAGRO,5,8,103246,101558,-34.615221,-58.427907
200404,Esc. Primaria Comun Nº 20 DE 02º Rosario Vera Peñaloza,Pringles 1165,SE05AN,publica,ALMAGRO,5,2,103390,103417,-34.598462,-58.426344
200975,Jardin de Infantes Nucleado D DE 02º [S] (EPC 20),Pringles 1165,SE05AN,publica,ALMAGRO,5,2,103390,103417,-34.598462,-58.426344
200402,Instituto Benito Nazar,Av. Estado de Israel 4230,SE05AN,privada,ALMAGRO,5,2,103479,103463,-34.598047,-58.425374
200408,Instituto Infancias (sede),Pringles 939,SE05AN,privada,ALMAGRO,5,2,103353,103154,-34.600833,-58.426746
200408,Instituto Infancias (anexo),Guardia Vieja 4541,SE05AN,privada,ALMAGRO,5,2,103167,103271,-34.599779,-58.428775
200972,Esc. Primaria Comun Nº 03 DE 02º Manuel Sola,Lambare 975,SE05AO,publica,ALMAGRO,5,2,103045,102907,-34.603061,-58.430103
201478,Jardin de Infantes Nucleado C DE 02º (EPC 03),Lambare 975,SE05AO,publica,ALMAGRO,5,2,103045,102907,-34.603061,-58.430103
200386,Esc. Primaria Comun Nº 11 DE 02º Provincia de Jujuy,Obrero Roberto Nuñez 4355,SE05AO,publica,ALMAGRO,5,2,103371,102872,-34.603375,-58.426549
200997,Esc. Normal Superior Nº 07 Jose Maria Torres (sede),Av. Corrientes 4261 - Humahuaca 4254/4260,SE05AO,publica,ALMAGRO,5,2,103513,102961,-34.602573,-58.425001
201222,Esc. de Comercio Nº 08 Patricias Argentinas,Av. Corrientes 4261 - Humahuaca 4254/4260,SE05AO,publica,ALMAGRO,5,2,103513,102961,-34.602573,-58.425001
200420,Instituto Casa de Jesus,Av. Corrientes 4471,SE05AO,privada,ALMAGRO,5,2,103223,102995,-34.602267,-58.428163
200305,Escuela de la Nueva Expresion,Humahuaca 4248,SE05AO,privada,ALMAGRO,5,2,103540,103065,-34.601635,-58.424707
200998,Colegio Galileo Galilei,Palestina 748,SE05AO,privada,ALMAGRO,5,2,103454,103028,-34.601969,-58.425645
200269,Instituto Centro Psicopedagogico de Educacion Especial Acuarela,Pringles 738,SE05AO,privada,ALMAGRO,5,2,103296,102843,-34.603637,-58.427367
202755,Jardin de Infantes La Vaca de Humahuaca,Humahuaca 4242,SE05AO,privada,ALMAGRO,5,2,103549,103064,-34.601644,-58.424609
202779,Escuela Infantil Dulce Espera,Sarmiento 4620,SE05AO,privada,ALMAGRO,5,2,102987,102786,-34.60416,-58.430738
200158,Jardin de Infantes Nucleado B DE 08º [S] (EPC 06),Av. San Juan 4396 - Av. La Plata 1038,SE05AP,publica,BOEDO,5,8,103373,100237,-34.627128,-58.426517
200902,Esc. Primaria Comun Nº 06 DE 08º San Jose de Calasanz,Av. La Plata 1038 - Av. San Juan 4396,SE05AP,publica,BOEDO,5,8,103379,100201,-34.627453,-58.426451
202545,Centro de Educacion Creativa La Aldea del Buen Ayre,Jose Marmol 972,SE05AP,privada,BOEDO,5,6,103600,100366,-34.62596,-58.424075
200756,Esc. de Comercio Nº 23 Dr. Luis Agote,Av. Rivadavia 5161,SE06AA,publica,CABALLITO,6,7,102269,101138,-34.619009,-58.438559
201352,Colegio Nº 17 Primera Junta,Av. Rivadavia 5161,SE06AA,publica,CABALLITO,6,7,102269,101138,-34.619009,-58.438559
201566,Esc. de Educacion Especial y Form. Integral (Jovenes y Adultos con Discapacidad Visual) Nº 34 Gral. San Martin,Colpayo 132,SE06AA,publica,CABALLITO,6,7,102040,101205,-34.618406,-58.441056
201297,Esc. Normal Superior Nº 04 Estanislao Severo Zeballos,Av. Rivadavia 4950 - Rosario 411,SE06AA,publica,CABALLITO,6,8,102568,101245,-34.618044,-58.435299
201410,Liceo Nº 02 Amancio Alcorta,Av. Rivadavia 4950 - Rosario 411,SE06AA,publica,CABALLITO,6,8,102568,101245,-34.618044,-58.435299
200755,Instituto Carlos Pellegrini,Av. Acoyte 75,SE06AA,privada,CABALLITO,6,7,102438,101322,-34.61735,-58.436716
200105,Instituto Tobar Garcia,Yerbal 351,SE06AA,privada,CABALLITO,6,7,102564,101448,-34.616214,-58.435343
201374,Esc. Primaria Comun Nº 03 DE 07º Primera Junta,Av. Rivadavia 4817,SE06AB,publica,CABALLITO,6,7,102760,101400,-34.616646,-58.433206
201371,Jardin de Infantes Comun Nº 02 DE 07º Prof. Marina Margarita Ravioli,Campichuelo 100,SE06AB,publica,CABALLITO,6,7,102732,101517,-34.615592,-58.433511
202904,Esc. de Educacion Media Nº 01 DE 07º,Yerbal 25,SE06AB,publica,CABALLITO,6,7,102984,101679,-34.614131,-58.430764
200753,Instituto Summa - Fundacion Salottiana,Yerbal 65,SE06AB,privada,CABALLITO,6,7,102915,101633,-34.614546,-58.431516
201373,Instituto Guillermo Rawson,Av. Rivadavia 4641,SE06AB,privada,CABALLITO,6,7,102953,101501,-34.615735,-58.431101
200882,Esc. Primaria Comun Nº 08 DE 07º Provincia de San Juan,Cnel. Apolinario Figueroa 1077 - Espinosa 1243,SE06AC,publica,CABALLITO,6,7,100957,102239,-34.609086,-58.452866
201273,Jardin de Infantes Comun Nº 04 DE 07º La Torre de Cubos,Espinosa 1243 - Cnel. Apolinario Figueroa 1077,SE06AC,publica,CABALLITO,6,7,100911,102251,-34.608978,-58.453367
200877,Esc. Primaria Comun Nº 19 DE 07º Galicia,Luis Viale 1046/1048/1052,SE06AC,publica,CABALLITO,6,7,100921,102329,-34.608275,-58.453258
200876,Esc. Tecnica Nº 09 Ing. Luis A. Huergo,Gral. Martin de Gainza 1050 - Dr. Nicolas Repetto 1051,SE06AC,publica,CABALLITO,6,7,101523,102281,-34.608707,-58.446695
201267,Esc. Superior de Comercio Nº 03 Hipolito Vieytes,Av. Gaona 1502,SE06AC,publica,CABALLITO,6,7,101223,102176,-34.609654,-58.449966
201266,Instituto San Pedro Nolasco,Av. Gaona 1734,SE06AC,privada,CABALLITO,6,7,100966,102006,-34.611187,-58.452767
201268,Instituto Redemptrix Captivorum,Espinosa 1220,SE06AC,privada,CABALLITO,6,7,100883,102236,-34.609113,-58.453673
201357,Esc. Primaria Comun Nº 24 DE 07º Virgen Generala,Jose Juan Biedma 459,SE06AD,publica,CABALLITO,6,7,100955,101111,-34.619255,-58.452886
201706,Jardin de Infantes Nucleado B DE 07º La Veleta de Caballito (EPC 24),Jose Juan Biedma 459,SE06AD,publica,CABALLITO,6,7,100955,101111,-34.619255,-58.452886
201265,Esc. Primaria Comun Nº 25 DE 07º Republica de Guatemala,Mendez de Andes 1451/1453,SE06AD,publica,CABALLITO,6,7,100800,101295,-34.617596,-58.454577
201436,Esc. Primaria Comun Nº 10 DE 07º Arq. Mario Jose Buschiazzo,Felipe Vallese 975,SE06AE,publica,CABALLITO,6,7,101398,101691,-34.614026,-58.448057
201706,Jardin de Infantes Nucleado B DE 07º La Veleta de Caballito (EPC 10),Felipe Vallese 975,SE06AE,publica,CABALLITO,6,7,101398,101691,-34.614026,-58.448057
201264,Esc. Primaria Comun Nº 14 DE 07º Dr. Ernesto E. Padilla,Felipe Vallese 835,SE06AE,publica,CABALLITO,6,7,101636,101810,-34.612953,-58.445462
200464,Colegio Integral Caballito,Dr. Juan F. Aranguren 723,SE06AE,privada,CABALLITO,6,7,101878,101636,-34.614521,-58.442823
202148,Instituto Modelo Proyecto 2000,Planes 1150,SE06AE,privada,CABALLITO,6,7,101235,101863,-34.612476,-58.449834
200872,Jardin de Infantes Nucleado A DE 08º (EPC 09),Av. La Plata 623,SE06AF,publica,CABALLITO,6,8,103243,100744,-34.622558,-58.427937
201026,Esc. Primaria Comun Nº 09 DE 08º Florentino Ameghino,Av. La Plata 623,SE06AF,publica,CABALLITO,6,8,103243,100744,-34.622558,-58.427937
201350,Esc. de Educacion Especial (Niños y Jovenes con Discapacidad Visual) Nº 33 Santa Cecilia,Senillosa 650,SE06AF,publica,CABALLITO,6,8,103181,100540,-34.624397,-58.428612
200886,Instituto Calasanz,Av. Directorio 29 - Senillosa 854,SE06AF,privada,CABALLITO,6,8,103308,100266,-34.626867,-58.427226
201391,Instituto Sta. Maria,Senillosa 568,SE06AF,privada,CABALLITO,6,8,103161,100659,-34.623325,-58.42883
200765,Esc. Primaria Comun Nº 11 DE 08º Presidente Marcelo T. de Alvear,Av. Juan B. Alberdi 163,SE06AG,publica,CABALLITO,6,8,103035,100771,-34.622316,-58.430205
200872,Jardin de Infantes Nucleado A DE 08º [S] (EPC 11),Av. Juan B. Alberdi 163,SE06AG,publica,CABALLITO,6,8,103035,100771,-34.622316,-58.430205
200871,Esc. de Comercio Nº 19 Juan Montalvo,Formosa 136,SE06AG,publica,CABALLITO,6,8,103051,100919,-34.620981,-58.430031
202074,Doblas Kindergarten,Doblas 380/382,SE06AG,privada,CABALLITO,6,8,102963,100951,-34.620693,-58.430991
200379,Jardin de Infantes Comun Nº 03 DE 07º La Porteña,Yerbal 1548 - Av. Rivadavia 6065,SE06AH,publica,CABALLITO,6,7,101050,100631,-34.623581,-58.45185
201353,Esc. Primaria Comun Nº 04 DE 07º Presidente Dr. Arturo Umberto Illia,Av. Rivadavia 6065 - Yerbal 1548,SE06AH,publica,CABALLITO,6,7,101101,100551,-34.624303,-58.451294
201547,Instituto Antonio Provolo,Av. Juan B. Alberdi 1679,SE06AH,privada,CABALLITO,6,8,100995,100197,-34.627494,-58.452449
200925,Instituto Argentino Excelsior (sede),Av. Rivadavia 6028,SE06AH,privada,CABALLITO,6,8,101188,100538,-34.62442,-58.450345
201559,Escuela Hogar Dr. Miguel V. Loureyro,Cnel. Ramon Lorenzo Falcon 1551,SE06AH,privada,CABALLITO,6,8,101172,100437,-34.62533,-58.450519
201567,Instituto Educativo Modelo,Av. Juan B. Alberdi 1577 - Malvinas Argentinas 166,SE06AH,privada,CABALLITO,6,8,101170,100304,-34.626529,-58.450541
200925,Instituto Argentino Excelsior (anexo),Malvinas Argentinas 35/37,SE06AH,privada,CABALLITO,6,8,101042,100439,-34.625312,-58.451937
200767,Colegio San Cirano (anexo),Malvinas Argentinas 143,SE06AH,privada,CABALLITO,6,8,101090,100318,-34.626403,-58.451413
202698,Escuela Infantil Jardin Modelo,Av. Rivadavia 6060,SE06AH,privada,CABALLITO,6,8,101133,100513,-34.624641,-58.450946
201449,Esc. Primaria Comun Nº 03 DE 08º Dr. Manuel Augusto Montes de Oca,Puan 360,SE06AI,publica,CABALLITO,6,8,101486,100270,-34.626835,-58.447095
200885,Colegio Canada,Av. Pedro Goyena 1345,SE06AI,privada,CABALLITO,6,8,101560,100233,-34.627169,-58.446288
202731,Escuela Infantil Tenderness,Hortiguera 216,SE06AI,privada,CABALLITO,6,8,101560,100485,-34.624897,-58.446288
202692,Escuela Infantil Mundo Niños,Hortiguera 336,SE06AI,privada,CABALLITO,6,8,101611,100333,-34.626269,-58.44571
201537,Esc. de Educacion Especial (Niños y Jovenes con Discapacidad Visual) Nº 35 Jose Manuel Estrada,Av. Juan B. Alberdi 1083,SE06AJ,publica,CABALLITO,6,8,101820,100723,-34.622751,-58.443454
201348,Instituto Gral. Justo Jose de Urquiza,Victor Martinez 81,SE06AJ,privada,CABALLITO,6,8,101654,100631,-34.623581,-58.445264
200873,Instituto Marianista,Av. Rivadavia 5652,SE06AJ,privada,CABALLITO,6,8,101690,100774,-34.622292,-58.444871
200767,Colegio San Cirano (sede),Av. Rivadavia 5672 - Victor Martinez 30,SE06AJ,privada,CABALLITO,6,8,101639,100749,-34.622517,-58.445427
200114,Instituto Monseñor Sabelli,Victor Martinez 62,SE06AJ,privada,CABALLITO,6,8,101669,100664,-34.623283,-58.4451
203170,El Jardin de los Abrazos,Victor Martinez 287,SE06AJ,privada,CABALLITO,6,8,101698,100458,-34.62514,-58.444783
290030,Instituto Social Militar Dr. Damaso Centeno,Av. Rivadavia 5546/50,SE06AJ,publica,CABALLITO,6,8,101829,100843,-34.621669,-58.443356
201442,Esc. Primaria Comun Nº 04 DE 08º Organizacion de los Estados Americanos,Del Barco Centenera 747/741,SE06AK,publica,CABALLITO,6,8,102131,100111,-34.628267,-58.440061
201595,Jardin de Infantes Nucleado E DE 08º El Tranvia de Caballito [S] (EPC 04),Del Barco Centenera 741/747,SE06AK,publica,CABALLITO,6,8,102127,100119,-34.628195,-58.440104
201027,Esc. Primaria Comun Nº 14 DE 08º Joaquin Victor Gonzalez,Av. Pedro Goyena 984,SE06AK,publica,CABALLITO,6,8,102022,100284,-34.626708,-58.44125
201595,Jardin de Infantes Nucleado E DE 08º El Tranvia de Caballito (EPC 14),Av. Pedro Goyena 984,SE06AK,publica,CABALLITO,6,8,102022,100284,-34.626708,-58.44125
201826,Instituto Saint Exupery,Jose Bonifacio 1075,SE06AK,privada,CABALLITO,6,8,101902,100156,-34.627862,-58.442558
203000,Desde la Cuna,Thompson 523,SE06AK,privada,CABALLITO,6,8,102185,100445,-34.625256,-58.439473
203140,Escuela Infantil Jarpadimpi,Av. Pedro Goyena 1043,SE06AK,privada,CABALLITO,6,8,101952,100315,-34.626429,-58.442013
200158,Jardin de Infantes Nucleado B DE 08º (EPC 08),Av. Jose Maria Moreno 480,SE06AL,publica,CABALLITO,6,8,102659,100584,-34.624002,-58.434304
201540,Esc. Primaria Comun Nº 08 DE 08º Antonio Schettino,Av. Jose Maria Moreno 480,SE06AL,publica,CABALLITO,6,8,102659,100584,-34.624002,-58.434304
200883,Liceo Nº 12 Fray Mamerto Esquiu,Av. Jose Maria Moreno 345,SE06AL,publica,CABALLITO,6,8,102581,100795,-34.6221,-58.435155
202334,Mundo Ecologico,Valle 584,SE06AL,privada,CABALLITO,6,8,102527,100510,-34.62467,-58.435743
202527,Escuela Infantil Mi Mundo Feliz,Av. Juan B. Alberdi 714,SE06AL,privada,CABALLITO,6,8,102318,100648,-34.623426,-58.438023
201102,Esc. Primaria Comun Nº 07 DE 02º Del Centenario,Rio de Janeiro 986/946 - Ramos Mejia 951,SE06AM,publica,CABALLITO,6,2,102850,102768,-34.604314,-58.432229
201478,Jardin de Infantes Nucleado C DE 02º (EPC 07),Rio de Janeiro 946/986 - Ramos Mejia 951,SE06AM,publica,CABALLITO,6,2,102861,102748,-34.604495,-58.432109
201103,Esc. Primaria Comun Nº 17 DE 02º Presidente Uriburu,Av. Angel Gallardo 246/250 - Juana de Ibarbourou 1080,SE06AM,publica,CABALLITO,6,2,102532,102800,-34.604027,-58.435696
201478,Jardin de Infantes Nucleado C DE 02º [S] (EPC 17),Av. Angel Gallardo 250/246 - Juana de Ibarbourou 1080,SE06AM,publica,CABALLITO,6,2,102527,102797,-34.604054,-58.43575
201404,Instituto Privado Divino Rostro,Av. Angel Gallardo y Leopoldo Marechal,SE06AM,privada,CABALLITO,6,7,102255,102630,-34.60556,-58.438715
202557,Melody Garden,Av. Leopoldo Marechal 1092,SE06AM,privada,CABALLITO,6,7,102199,102604,-34.605793,-58.439326
201405,Jardin de Infantes Integral Nº 01 DE 07º Andres Ferreyra,Eduardo Acevedo 609 - Av. Diaz Velez 4659,SE06AN,publica,CABALLITO,6,7,102792,102295,-34.608578,-58.432859
200368,Escuela del Parque,Bogota 123,SE06AN,privada,CABALLITO,6,7,102750,101807,-34.612977,-58.433316
201406,Instituto Privado Tierra de Melodia,Eduardo Acevedo 560,SE06AN,privada,CABALLITO,6,7,102802,102195,-34.60948,-58.43275
200910,Escuela de la Paz,Gral. Venancio Flores 65,SE06AN,privada,CABALLITO,6,7,102915,101715,-34.613806,-58.431516
201375,Esc. Primaria Comun Nº 15 DE 07º Gral. Jose Gervasio de Artigas,Dr. Eleodoro Lobos 437,SE06AO,publica,CABALLITO,6,7,102483,101822,-34.612843,-58.436227
201706,Jardin de Infantes Nucleado B DE 07º La Veleta de Caballito (EPC 15),Dr. Eleodoro Lobos 437,SE06AO,publica,CABALLITO,6,7,102483,101822,-34.612843,-58.436227
201355,Esc. Primaria Comun Nº 20 DE 07º Tte. Benjamin Matienzo,Hidalgo 635/627,SE06AO,publica,CABALLITO,6,7,102096,101900,-34.612141,-58.440447
201706,Jardin de Infantes Nucleado B DE 07º La Veleta de Caballito [S] (EPC 20),Hidalgo 627/635,SE06AO,publica,CABALLITO,6,7,102098,101891,-34.612222,-58.440425
201730,Jardin Maternal Nº 05 DE 07º Jacaranda,Juan Bautista Ambrosetti 699,SE06AO,publica,CABALLITO,6,7,102303,102092,-34.610409,-58.43819
201408,Complejo Educativo Nuevo Sol,Dr. G. Araoz Alfaro 373,SE06AO,privada,CABALLITO,6,7,102495,101542,-34.615367,-58.436095
203024,Complejo Educativo Nuevo Sol,Dr. G. Araoz Alfaro 442,SE06AO,privada,CABALLITO,6,7,102426,101494,-34.615785,-58.436859
200879,Jardin de Infantes Nucleado D DE 07º Los Sueños de Juanito (EPC 11),Nicasio Oroño 1431,SE06AP,publica,CABALLITO,6,7,100472,102262,-34.608879,-58.458154
200880,Esc. Primaria Comun Nº 11 DE 07º Jose Ignacio Gorriti,Nicasio Oroño 1431,SE06AP,publica,CABALLITO,6,7,100472,102262,-34.608879,-58.458154
200828,Instituto Monseñor Dillon,Almte. F. J. Segui 863,SE06AP,privada,CABALLITO,6,7,100637,101594,-34.614901,-58.456354
201269,Instituto Sta. Brigida,Av. Gaona 2068,SE06AP,privada,CABALLITO,6,7,100611,101810,-34.612954,-58.456638
201271,Instituto Profesional San Jose,Jose Juan Biedma 924,SE06AP,privada,CABALLITO,6,7,100728,101691,-34.614026,-58.455362
201270,Instituto Orsino,Nicasio Oroño 942,SE06AP,privada,CABALLITO,6,7,100803,101717,-34.613792,-58.454544
202590,Escuela Infantil Snoopy,Neuquen 1554,SE06AP,privada,CABALLITO,6,7,100719,101483,-34.615901,-58.45546
201192,Esc. Primaria Comun Nº 04 DE 11º Benjamin Zorrilla,San Pedrito 1415/1425,SE07AA,publica,FLORES,7,11,100526,98152,-34.645945,-58.457592
201194,Jardin de Infantes Comun Nº 02 DE 11º Flores del Sur,San Pedrito 1425/1415,SE07AA,publica,FLORES,7,11,100526,98152,-34.645945,-58.457592
201321,Esc. Primaria Comun Nº 23 DE 11º Gral. de Division Manuel N. Savio,San Pedrito 1137,SE07AA,publica,FLORES,7,11,100270,98430,-34.643421,-58.460366
201196,Instituto Elisa Harilaos,San Pedrito 1349,SE07AA,privada,FLORES,7,11,100469,98215,-34.645367,-58.458241
201195,Instituto Arzruni,Jose Marti 1562,SE07AA,privada,FLORES,7,11,100284,98042,-34.646907,-58.460215
201191,Instituto Parroquial Santa Clara,Zuviria 2660,SE07AA,privada,FLORES,7,11,100686,98479,-34.642988,-58.455827
201228,Colegio Nº 09 Justo Jose de Urquiza,Condarco 290,SE07AB,publica,FLORES,7,12,99565,100165,-34.627783,-58.468044
201198,Esc. de Educacion Media Nº 01 DE 12º Julio Cortazar,Bogota 2759,SE07AB,publica,FLORES,7,12,99454,100285,-34.626701,-58.469254
201935,Instituto Recreativo Terapeutico Especial IRTE,Bogota 2847,SE07AB,privada,FLORES,7,12,99350,100243,-34.627079,-58.470388
200907,Esc. Primaria Comun Nº 10 DE 08º Juan Agustin Maza,Cachimayo 1657,SE07AC,publica,PARQUE CHACABUCO,7,8,102484,98997,-34.638309,-58.436208
200382,Jardin de Infantes Comun Nº 03 DE 08º Mariquita Sanchez,"Saraza 1353, subsuelo",SE07AC,publica,PARQUE CHACABUCO,7,8,102432,98936,-34.638859,-58.436775
201585,Esc. Primaria Comun Nº 15 DE 08º Provincia de Salta,Saraza 1353,SE07AC,publica,PARQUE CHACABUCO,7,8,102432,98936,-34.638859,-58.436775
200169,Esc. Primaria Comun Nº 23 DE 08º Canada,Cachimayo 1735,SE07AC,publica,PARQUE CHACABUCO,7,8,102511,98904,-34.639147,-58.435913
200170,Escuela Infantil Nº 04 DE 08º Agustin Tatin Ravello,Victor Martinez 1780,SE07AC,publica,PARQUE CHACABUCO,7,8,102269,98786,-34.640211,-58.438552
201611,Escuela Miguel Hernandez,Victor Martinez 1739,SE07AC,privada,PARQUE CHACABUCO,7,8,102230,98820,-34.639905,-58.438978
200253,Instituto San Judas Tadeo,Somellera 1720,SE07AC,privada,PARQUE CHACABUCO,7,19,102486,98367,-34.643988,-58.436184
200380,Esc. Primaria Comun Nº 02 DE 08º Tomas Santa Coloma,Santander 1150,SE07AD,publica,PARQUE CHACABUCO,7,8,102491,99295,-34.635622,-58.436133
200906,Esc. Primaria Comun Nº 17 DE 08º Prof. Raul L. Bernardelli,Estrada 627,SE07AD,publica,PARQUE CHACABUCO,7,8,102697,99755,-34.631475,-58.433887
200165,Esc. Primaria Comun Nº 22 DE 08º Antonio Abraham Zinny,Salas 565,SE07AD,publica,PARQUE CHACABUCO,7,8,102669,99661,-34.632323,-58.434192
201326,Esc. Primaria Comun Nº 06 DE 11º Dr. Carlos Vaz Ferreira,Varela 1040,SE07AE,publica,FLORES,7,11,100563,98746,-34.640579,-58.457163
201340,Esc. Primaria Comun Nº 12 DE 11º Reconquista,Varela 753,SE07AE,publica,FLORES,7,11,100286,99010,-34.638226,-58.460199
201341,Escuela Integral Prof. Jaim Weitzman,Varela 850,SE07AE,privada,FLORES,7,11,100408,98915,-34.63903,-58.458842
201250,Esc. de Comercio Nº 09 Jose Ingenieros,Cnel. Ramon Lorenzo Falcon 2248,SE07AF,publica,FLORES,7,11,100314,99974,-34.629504,-58.459876
201685,Instituto Ntra. Sra. de la Misericordia,Av. Directorio 2138,SE07AF,privada,FLORES,7,11,100575,99633,-34.632578,-58.457029
201190,Instituto Virginio F. Grego,Av. Directorio 2220,SE07AF,privada,FLORES,7,11,100487,99602,-34.632858,-58.457989
202752,Instituto Juan Bautista Alberdi,Av. Juan B. Alberdi 2241,SE07AF,privada,FLORES,7,11,100356,99874,-34.630406,-58.459417
201886,Instituto El Galileo,Jose Bonifacio 2253,SE07AF,privada,FLORES,7,11,100403,99748,-34.631542,-58.458905
200444,Jardin de Infantes Nucleado D DE 11º Sin Fronteras [S] (EPC 15),Av. Carabobo 253,SE07AG,publica,FLORES,7,11,100724,99925,-34.629946,-58.455404
201686,Esc. Primaria Comun Nº 15 DE 11º Republica Oriental del Uruguay,Av. Carabobo 253,SE07AG,publica,FLORES,7,11,100724,99925,-34.629946,-58.455404
200612,Esc. Tecnica Nº 05 Maria de los Remedios de Escalada de San Martin,Av. Juan B. Alberdi 1845,SE07AG,publica,FLORES,7,11,100775,100049,-34.628828,-58.454848
200611,Liceo Nº 05 Pascual Guaglianone,Av. Carabobo 286,SE07AG,publica,FLORES,7,11,100781,99905,-34.630126,-58.454783
201079,Esc. Tecnica Nº 18 Jose Antonio Alvarez Condarco,Av. Carabobo 286,SE07AG,publica,FLORES,7,11,100781,99905,-34.630126,-58.454783
200487,Esc. de Comercio Nº 21 Cap. de Navio Hipolito Bouchard,Pumacahua 390,SE07AG,publica,FLORES,7,11,100929,99827,-34.630829,-58.453169
201519,Instituto Prof. Jorge A. Susini,Av. Juan B. Alberdi 1948,SE07AG,privada,FLORES,7,11,100669,99963,-34.629603,-58.456004
200613,Instituto Sara Chamberlain de Eccleston,Av. Carabobo 56,SE07AG,privada,FLORES,7,11,100652,100211,-34.627368,-58.45619
201702,Instituto Inmaculada Concepcion de Ntra. Sra. de Lourdes,Av. Rivadavia 6270,SE07AG,privada,FLORES,7,11,100774,100345,-34.62616,-58.454859
200616,Instituto Casa Verde (sede),Lautaro 122,SE07AG,privada,FLORES,7,11,100591,100058,-34.628747,-58.456855
200616,Instituto Casa Verde (anexo),Lautaro 157,SE07AG,privada,FLORES,7,11,100584,100008,-34.629198,-58.456931
202246,Nueva Escuela de Educacion La Obra (anexo),Gustavo Riccio 180,SE07AG,privada,FLORES,7,11,100665,100011,-34.629171,-58.456048
200157,Colegio Numen,Terrero 70,SE07AG,privada,FLORES,7,12,100664,100429,-34.625403,-58.456059
200220,Jardin de Infantes Nucleado A DE 12º (EPC 01),Yerbal 2370,SE07AH,publica,FLORES,7,12,100049,100178,-34.627665,-58.462765
200400,Esc. Primaria Comun Nº 01 DE 12º Museo de Bellas Artes Gral. Urquiza,Yerbal 2370,SE07AH,publica,FLORES,7,12,100049,100178,-34.627665,-58.462765
200419,Esc. Primaria Comun Nº 02 DE 12º Florencio Varela,Caracas 10,SE07AH,publica,FLORES,7,12,100175,100107,-34.628305,-58.461391
200220,Jardin de Infantes Nucleado A DE 12º (EPC 19),Fray Cayetano Rodriguez 95,SE07AH,publica,FLORES,7,12,100032,100166,-34.627774,-58.462951
201202,Esc. Primaria Comun Nº 19 DE 12º Leandro Niceforo Alem,Fray Cayetano Rodriguez 95,SE07AH,publica,FLORES,7,12,100032,100166,-34.627774,-58.462951
200040,Esc. Primaria Comun Nº 04 DE 19º Ricardo Güiraldes,Av. Riestra 1850,SE07AI,publica,FLORES,7,19,102511,98043,-34.646916,-58.435936
201833,Esc. de Educacion Media Nº 03 DE 19º Prof. Carlos Geniso,Agustin de Vedia 2519 - Cnel. Martiniano Chilavert 1935,SE07AI,publica,FLORES,7,19,102797,97896,-34.648236,-58.432819
202270,Escuela Infantil Nº 06 DE 19º,Cnel. Martiniano Chilavert 1935 - Agustin de Vedia 2519,SE07AI,publica,FLORES,7,19,102841,97834,-34.648779,-58.432385
201354,Esc. Primaria Comun Nº 21 DE 08º Juan Jose Paso,Beauchef 1869 - Pje. Querol 916,SE07AJ,publica,PARQUE CHACABUCO,7,8,103002,98944,-34.638785,-58.430558
201551,Jardin de Infantes Nucleado C DE 08º (EPC 21),Pje. Querol 916 - Beauchef 1869,SE07AJ,publica,PARQUE CHACABUCO,7,8,102977,98966,-34.638587,-58.430831
200141,Esc. Primaria Comun Nº 24 DE 08º Dr. Florian Oliver,Saraza 470,SE07AJ,publica,PARQUE CHACABUCO,7,8,103481,99136,-34.637053,-58.425335
201551,Jardin de Infantes Nucleado C DE 08º [S] (EPC 24),Saraza 470,SE07AJ,publica,PARQUE CHACABUCO,7,8,103481,99136,-34.637053,-58.425335
201887,Escuela de Formacion Educativa y Deportiva Infantil,Avelino Diaz 324,SE07AJ,privada,PARQUE CHACABUCO,7,8,103500,99354,-34.635088,-58.425128
200884,Esc. Primaria Comun Nº 01 DE 08º Chacabuco,Av. Eva Peron 1502,SE07AK,publica,PARQUE CHACABUCO,7,8,101660,99510,-34.633686,-58.445196
201029,Jardin de Infantes Integral Nº 01 DE 08º Ciudad de Buenos Aires,Av. Eva Peron 1502,SE07AK,publica,PARQUE CHACABUCO,7,8,101706,99465,-34.634091,-58.444694
201349,Esc. Integral Interdisciplinaria Nº 08 Luis Vernet,Hortiguera 742,SE07AK,publica,PARQUE CHACABUCO,7,8,101799,99809,-34.63099,-58.443681
201958,Instituto Vocacional de Arte Manuel Jose de Labarden (Sede Curapaligüe),Av. Curapaligüe 1026,SE07AK,publica,PARQUE CHACABUCO,7,8,101500,99352,-34.63511,-58.446941
200820,Esc. Primaria Comun Nº 07 DE 08º Niñas de Ayohuma,Av. Asamblea 1221,SE07AL,publica,PARQUE CHACABUCO,7,8,101923,99283,-34.635732,-58.442327
200909,Jardin de Infantes Comun Nº 05 DE 08º Martha A. Salotti,Av. Asamblea 1221,SE07AL,publica,PARQUE CHACABUCO,7,8,101923,99283,-34.635732,-58.442327
201393,Inst. Superior de Educ. Fisica Nº 02 Prof. Federico Williams Dickens,Av. Curapaligüe 1150,SE07AL,publica,PARQUE CHACABUCO,7,8,101591,99257,-34.635967,-58.445948
200345,"Esc. de Educacion Especial y Form. Integral (Niños, Jovenes y Adultos con Discapacidad Mental) Nº 01 Alfonsina Storni",Emilio Mitre 1087,SE07AL,publica,PARQUE CHACABUCO,7,8,102019,99540,-34.633415,-58.441281
200834,Instituto Medalla Milagrosa,Av. Curapaligüe 1155,SE07AL,privada,PARQUE CHACABUCO,7,11,101544,99226,-34.636246,-58.446461
201894,Instituto La Foca Revoltosa,Av. Gaona 3560,SE07AM,privada,FLORES,7,12,98920,100902,-34.621138,-58.475076
200398,Escuela Integral Maimonides (sede),Av. Nazca 750,SE07AM,privada,FLORES,7,12,99113,100607,-34.623798,-58.472972
203143,Escuela Infantil El Payaso,Paez 2870,SE07AM,privada,FLORES,7,12,99120,100792,-34.622092,-58.472919
202748,Escuela Integral Casa de Moises,Felipe Vallese 2953,SE07AM,privada,FLORES,7,12,99021,100670,-34.62323,-58.473975
200959,Instituto Schönthal,Av. Nazca 537,SE07AN,privada,FLORES,7,12,99239,100384,-34.625808,-58.471598
200962,Instituto Puertas de Sion,Helguera 453,SE07AN,privada,FLORES,7,12,98967,100326,-34.626331,-58.474565
200398,Escuela Integral Maimonides (anexo),Terrada 545,SE07AN,privada,FLORES,7,12,99350,100436,-34.62534,-58.470388
200220,Jardin de Infantes Nucleado A DE 12º (EPC 05),Paez 2542 - Gral. Jose Gervasio de Artigas 878,SE07AO,publica,FLORES,7,12,99528,100946,-34.620742,-58.468447
201007,Esc. Primaria Comun Nº 05 DE 12º Republica de El Salvador,Gral. Jose Gervasio de Artigas 878 - Paez 2542,SE07AO,publica,FLORES,7,12,99573,100938,-34.620814,-58.467956
201901,Jardin Maternal Nº 05 DE 12º,Dr. Juan Felipe Aranguren 2605,SE07AO,publica,FLORES,7,12,99531,100597,-34.623888,-58.468414
200303,Instituto San Roberto,Bolivia 667,SE07AO,privada,FLORES,7,12,99551,100665,-34.623275,-58.468196
201476,Instituto Monseñor Aneiros de San Jose,Felipe Vallese 2549,SE07AO,privada,FLORES,7,12,99546,100850,-34.621608,-58.46825
200155,Jardin de Infantes Comun Nº 02 DE 12º,Av. Avellaneda 2555/2547,SE07AP,publica,FLORES,7,12,99665,100502,-34.624745,-58.466953
201197,Esc. Primaria Comun Nº 12 DE 12º Provincia del Chaco,Av. Avellaneda 2547/2555,SE07AP,publica,FLORES,7,12,99675,100505,-34.624718,-58.466844
200302,Esc. Primaria Comun Nº 15 DE 12º Cnel. C. T. Sourigues,Dr. Juan Felipe Aranguren 2400,SE07AP,publica,FLORES,7,12,99850,100676,-34.623176,-58.464935
201683,Esc. Primaria Comun Nº 24 DE 11º Dr. Pedro Avelino Torres,Lautaro 752,SE07AQ,publica,FLORES,7,11,100884,99331,-34.6353,-58.453659
201684,Jardin de Infantes Integral Nº 03 DE 11º,Lautaro 752,SE07AQ,publica,FLORES,7,11,100884,99331,-34.6353,-58.453659
200832,Instituto Ntra. Sra. de Lujan de San Jose de Flores,Av. Carabobo 967,SE07AQ,privada,FLORES,7,11,101052,99124,-34.637166,-58.451826
200833,Instituto Guardia de Honor del Santisimo Rosario,Lautaro 824,SE07AQ,privada,FLORES,7,11,100916,99245,-34.636076,-58.45331
200444,Jardin de Infantes Nucleado D DE 11º Sin Fronteras (EPC 07),Pumacahua 1247,SE07AR,publica,PARQUE CHACABUCO,7,11,101391,98969,-34.638563,-58.448129
200831,Esc. Primaria Comun Nº 07 DE 11º Tte. Manuel Felix Origone,Pumacahua 1247,SE07AR,publica,PARQUE CHACABUCO,7,11,101391,98969,-34.638563,-58.448129
200444,Jardin de Infantes Nucleado D DE 11º Sin Fronteras (EPC 13),Lautaro 1440,SE07AR,publica,FLORES,7,11,101442,98635,-34.641574,-58.447572
200830,Esc. Primaria Comun Nº 13 DE 11º Francisca Jacques,Lautaro 1440,SE07AR,publica,FLORES,7,11,101442,98635,-34.641574,-58.447572
200829,Esc. Primaria Comun Nº 22 DE 11º Hipolito Bouchard,Avelino Diaz 2356,SE07AR,publica,FLORES,7,11,101223,98450,-34.643242,-58.44996
202217,Instituto Argentino Coreano,Av. Asamblea 1840,SE07AR,privada,FLORES,7,11,101244,98883,-34.639338,-58.449732
200139,Esc. Primaria Comun Nº 05 DE 07º Juan B. Peña,Manuel Ricardo Trelles 948,SE07AS,publica,FLORES,7,7,100289,101496,-34.615784,-58.460149
200848,Jardin de Infantes Nucleado C DE 07º Javier Villafañe (EPC 05),Manuel Ricardo Trelles 948,SE07AS,publica,FLORES,7,7,100289,101496,-34.615784,-58.460149
200846,Esc. Primaria Comun Nº 12 DE 07º Facundo Zuviria,Franklin 1836,SE07AS,publica,FLORES,7,7,100240,101539,-34.615397,-58.460683
200848,Jardin de Infantes Nucleado C DE 07º Javier Villafañe [S] (EPC 12),Franklin 1836,SE07AS,publica,FLORES,7,7,100240,101539,-34.615397,-58.460683
200344,Jardin de Infantes Nucleado C DE 11º (EPC 09),Cnel. Ramon Lorenzo Falcon 2934,SE07AT,publica,FLORES,7,11,99432,99645,-34.63247,-58.469494
200786,Esc. Primaria Comun Nº 09 DE 11º Jose Maria Paz,Cnel. Ramon Lorenzo Falcon 2934,SE07AT,publica,FLORES,7,11,99432,99645,-34.63247,-58.469494
200192,Esc. Tecnica Nº 06 Fernando Fader,Pje. La Porteña 54,SE07AT,publica,FLORES,7,12,99581,99975,-34.629495,-58.467869
200194,Colegio Eyelen,Helguera 40/42,SE07AT,privada,FLORES,7,12,99137,99811,-34.630973,-58.472711
200344,Jardin de Infantes Nucleado C DE 11º [S] (EPC 10),Av. Lafuente 559,SE07AU,publica,FLORES,7,11,99790,99144,-34.636986,-58.46559
201343,Esc. Primaria Comun Nº 10 DE 11º Ing. Octavio S. Pico,Av. Lafuente 559,SE07AU,publica,FLORES,7,11,99790,99144,-34.636986,-58.46559
200117,Jardin de Infantes Integral Nº 01 DE 11º,Av. San Pedrito 341,SE07AU,publica,FLORES,7,11,99573,99368,-34.634967,-58.467957
201252,Colegio del Libertador (sede),Av. Directorio 2959,SE07AU,privada,FLORES,7,11,99527,99294,-34.635634,-58.468459
201252,Colegio del Libertador (anexo),Quirno 311,SE07AU,privada,FLORES,7,11,99429,99347,-34.635156,-58.469527
201251,Instituto Ana Maria Janer,Av. Juan B. Alberdi 2555,SE07AV,privada,FLORES,7,11,99938,99718,-34.631812,-58.463976
202101,Instituto ESBA - Flores,Cnel. Ramon Lorenzo Falcon 2670,SE07AV,privada,FLORES,7,11,99754,99770,-34.631343,-58.465983
200344,Jardin de Infantes Nucleado C DE 11º (EPC 08),Varela 358,SE07AW,publica,FLORES,7,11,99978,99497,-34.633804,-58.46354
201344,Esc. Primaria Comun Nº 08 DE 11º Cnel. Ing. Pedro Antonio Cerviño,Varela 358,SE07AW,publica,FLORES,7,11,99978,99497,-34.633804,-58.46354
201895,Colegio Limerick,Av. Francisco Bilbao 2449,SE07AW,privada,FLORES,7,11,100247,99329,-34.635319,-58.460606
201342,Instituto San Jose de Flores,Jose Bonifacio 2475,SE07AW,privada,FLORES,7,11,100100,99633,-34.632578,-58.462209
202663,Escuela Infantil Con Ojos de Niño,Rivera Indarte 319,SE07AW,privada,FLORES,7,11,100185,99626,-34.632641,-58.461282
200344,Jardin de Infantes Nucleado C DE 11º (EPC 05),Portela 734,SE07AX,publica,FLORES,7,11,99433,98768,-34.640376,-58.469484
201639,Esc. Primaria Comun Nº 05 DE 11º Albina Garcia de Ryan,Portela 734,SE07AX,publica,FLORES,7,11,99433,98768,-34.640376,-58.469484
201320,Esc. Primaria Comun Nº 16 DE 11º Dr. Francisco Javier Eugenio de Santa Cruz y Espejo,Primera Junta 3445,SE07AX,publica,FLORES,7,11,99824,98380,-34.643873,-58.46522
201325,Jardin de Infantes Nucleado A DE 11º (EPC 16),Primera Junta 3445,SE07AX,publica,FLORES,7,11,99824,98380,-34.643873,-58.46522
200153,Esc. Primaria Comun Nº 08 DE 19º Luis Federico Leloir,Av. Intendente Francisco Rabanal 2275 - Carlos Maria Ramirez 2272,SE08AA,publica,VILLA SOLDATI,8,19,103147,96651,-34.659418,-58.429021
201058,Jardin de Infantes Nucleado A DE 19º La Calesita de Pompeya [S] (EPC 08),Carlos Maria Ramirez 2272 - Av. Intendente Francisco Rabanal 2275,SE08AA,publica,VILLA SOLDATI,8,19,103114,96706,-34.658977,-58.429311
200875,Instituto Ntra. Sra. de Las Gracias,Condor 2150,SE08AA,privada,VILLA SOLDATI,8,19,103146,96853,-34.657626,-58.428989
200381,Jardin de Infantes Comun Nº 02 DE 13º,Av. Tte. Gral. Dellepiane 4750 - Av. Castañares 4689,SE08AB,publica,VILLA LUGANO,8,13,99169,96004,-34.665233,-58.472409
201395,Esc. Primaria Comun Nº 15 DE 13º Republica Argentina,Av. Castañares 4689 - Av. Tte. Gral. Dellepiane 4750,SE08AB,publica,VILLA LUGANO,8,13,99195,95985,-34.665463,-58.472124
200649,Esc. de Comercio Nº 06 America,Av. Tte. Gral. Dellepiane y Av. Escalada,SE08AB,publica,VILLA LUGANO,8,13,99270,96218,-34.663164,-58.471277
201128,Esc. de Educacion Media Nº 01 DE 13º Manuel Mujica Lainez,Av. Tte. Gral. Dellepiane y Av. Escalada,SE08AB,publica,VILLA LUGANO,8,13,99270,96218,-34.663164,-58.471277
200666,Jardin de Infantes Comun Nº 04 DE 21º Jose Libertella,Jose Ignacio Rucci 3961,SE08AC,publica,VILLA LUGANO,8,21,98403,94748,-34.676612,-58.480726
200669,Esc. Primaria Comun Nº 08 DE 21º Judith y Demetrio Demarchi,Jose Ignacio Rucci 3961,SE08AC,publica,VILLA LUGANO,8,21,98403,94748,-34.676612,-58.480726
200637,Esc. de Comercio Nº 12 Juan XXIII,Aquino 6040,SE08AC,publica,VILLA LUGANO,8,21,98446,94643,-34.677559,-58.480257
200672,Colegio San Martin de los Andes (sede),Martiniano Leguizamon 3951,SE08AC,privada,VILLA LUGANO,8,21,98505,94886,-34.675368,-58.479613
201091,Instituto Parroquial Canonigo Honorario Mario Fabian Alsina,Murguiondo 4055 - Av. Dellepiane 5730 - Martiniano Leguizamon 4030,SE08AC,privada,VILLA LUGANO,8,21,98738,94814,-34.676018,-58.47707
200672,Colegio San Martin de los Andes (anexo),Aquino 5654,SE08AC,privada,VILLA LUGANO,8,21,98726,94892,-34.675314,-58.477201
200641,Instituto Obra de la Conservacion de la Fe,Saladillo 5282 - Itaqui 6897 - Jose Leon Suarez 5269 - Av. F. Fernandez de la Cruz 6896,SE08AD,privada,VILLA RIACHUELO,8,21,98744,93229,-34.690295,-58.477038
200276,Instituto Amanecer,Av. Gral. Paz 16234 - Saladillo 5449,SE08AD,privada,VILLA RIACHUELO,8,21,98842,92951,-34.692805,-58.475938
203071,Jardin de Infantes Comun Nº 15 DE 21º,Fonrouge e/J. Barros Pazos y Cnel. M. Chilavert),SE08AE,publica,VILLA LUGANO,8,21,99670,94691,-34.677127,-58.466901
203079,Esc. Primaria Comun Nº 07 DE 21º,Fonrouge e/J. Barros Pazos y Cnel. M. Chilavert),SE08AE,publica,VILLA LUGANO,8,21,99670,94691,-34.677127,-58.466901
202802,Escuela Infantil Nº 08 DE 21º,Jose Barros Pazos 5250,SE08AE,publica,VILLA LUGANO,8,21,99686,94734,-34.67674,-58.466726
202810,Esc. Primaria Comun Nº 19 DE 21º Hermanos Latinoamericanos,Jose Barros Pazos 5250,SE08AE,publica,VILLA LUGANO,8,21,99686,94734,-34.67674,-58.466726
202903,Esc. de Educacion Media Nº 01 DE 21º,Jose Barros Pazos 5250,SE08AE,publica,VILLA LUGANO,8,21,99686,94734,-34.67674,-58.466726
